[{"id": 5881688, "name": "Fort St. James", "state": "", "country": "CA", "coord": {"lon": -124.262749, "lat": 54.455971}}, {"id": 5881774, "name": "Abbey", "state": "", "country": "CA", "coord": {"lon": -108.751427, "lat": 50.733391}}, {"id": 5881791, "name": "Abbotsford", "state": "", "country": "CA", "coord": {"lon": -122.252571, "lat": 49.05798}}, {"id": 5881792, "name": "Abbotsford", "state": "", "country": "CA", "coord": {"lon": -122.285873, "lat": 49.049679}}, {"id": 5881868, "name": "Aberdeen", "state": "", "country": "CA", "coord": {"lon": -106.284477, "lat": 52.31678}}, {"id": 5881941, "name": "Abitibi-T\u00e9miscamingue", "state": "", "country": "CA", "coord": {"lon": -77.782799, "lat": 48.100182}}, {"id": 5881954, "name": "Aboushagan Road", "state": "", "country": "CA", "coord": {"lon": -64.348747, "lat": 45.983452}}, {"id": 5882033, "name": "Acadia Valley", "state": "", "country": "CA", "coord": {"lon": -110.218323, "lat": 51.150131}}, {"id": 5882100, "name": "Acme", "state": "", "country": "CA", "coord": {"lon": -113.501953, "lat": 51.500118}}, {"id": 5882134, "name": "Acton", "state": "", "country": "CA", "coord": {"lon": -80.041489, "lat": 43.629688}}, {"id": 5882142, "name": "Acton Vale", "state": "", "country": "CA", "coord": {"lon": -72.565819, "lat": 45.65007}}, {"id": 5882351, "name": "Aden", "state": "", "country": "CA", "coord": {"lon": -111.318336, "lat": 49.033291}}, {"id": 5882375, "name": "Admiral", "state": "", "country": "CA", "coord": {"lon": -108.018059, "lat": 49.716759}}, {"id": 5882534, "name": "Agassiz", "state": "", "country": "CA", "coord": {"lon": -121.769257, "lat": 49.232979}}, {"id": 5882599, "name": "Agincourt", "state": "", "country": "CA", "coord": {"lon": -79.282898, "lat": 43.783421}}, {"id": 5882640, "name": "Aguanish", "state": "", "country": "CA", "coord": {"lon": -62.081829, "lat": 50.216839}}, {"id": 5882799, "name": "Airdrie", "state": "", "country": "CA", "coord": {"lon": -114.035278, "lat": 51.30011}}, {"id": 5882873, "name": "Ajax", "state": "", "country": "CA", "coord": {"lon": -79.032883, "lat": 43.850121}}, {"id": 5882953, "name": "Aklavik", "state": "", "country": "CA", "coord": {"lon": -135.010712, "lat": 68.219131}}, {"id": 5882994, "name": "Akulivik", "state": "", "country": "CA", "coord": {"lon": -78.199348, "lat": 60.80056}}, {"id": 5883027, "name": "Alameda", "state": "", "country": "CA", "coord": {"lon": -102.284203, "lat": 49.26675}}, {"id": 5883074, "name": "Albanel", "state": "", "country": "CA", "coord": {"lon": -72.448669, "lat": 48.88324}}, {"id": 5883078, "name": "Albany", "state": "", "country": "CA", "coord": {"lon": -65.048798, "lat": 44.800152}}, {"id": 5883089, "name": "Albatross", "state": "", "country": "CA", "coord": {"lon": -104.667831, "lat": 50.533409}}, {"id": 5883093, "name": "Alberni", "state": "", "country": "CA", "coord": {"lon": -124.802803, "lat": 49.24963}}, {"id": 5883102, "name": "Alberta", "state": "", "country": "CA", "coord": {"lon": -117.469002, "lat": 52.283329}}, {"id": 5883166, "name": "Alberton", "state": "", "country": "CA", "coord": {"lon": -64.065422, "lat": 46.816849}}, {"id": 5883171, "name": "Alberton South", "state": "", "country": "CA", "coord": {"lon": -64.07653, "lat": 46.797352}}, {"id": 5883187, "name": "Albertville", "state": "", "country": "CA", "coord": {"lon": -105.550987, "lat": 53.400089}}, {"id": 5883213, "name": "Albrights Corner", "state": "", "country": "CA", "coord": {"lon": -66.182182, "lat": 46.01683}}, {"id": 5883218, "name": "Albury", "state": "", "country": "CA", "coord": {"lon": -77.516182, "lat": 44.08342}}, {"id": 5883335, "name": "Alderson", "state": "", "country": "CA", "coord": {"lon": -111.335037, "lat": 50.283401}}, {"id": 5883385, "name": "Alert Bay", "state": "", "country": "CA", "coord": {"lon": -126.919792, "lat": 50.582932}}, {"id": 5883397, "name": "Alexander", "state": "", "country": "CA", "coord": {"lon": -100.296188, "lat": 49.830009}}, {"id": 5883490, "name": "Alexandria", "state": "", "country": "CA", "coord": {"lon": -74.632568, "lat": 45.316792}}, {"id": 5883519, "name": "Alexis Creek", "state": "", "country": "CA", "coord": {"lon": -123.286209, "lat": 52.083111}}, {"id": 5883589, "name": "Alfred", "state": "", "country": "CA", "coord": {"lon": -74.87738, "lat": 45.558998}}, {"id": 5883647, "name": "Algonquin Park", "state": "", "country": "CA", "coord": {"lon": -78.58287, "lat": 45.55011}}, {"id": 5883699, "name": "Alida", "state": "", "country": "CA", "coord": {"lon": -101.867607, "lat": 49.383339}}, {"id": 5883712, "name": "Alix", "state": "", "country": "CA", "coord": {"lon": -113.185249, "lat": 52.40012}}, {"id": 5883752, "name": "Allan", "state": "", "country": "CA", "coord": {"lon": -106.067902, "lat": 51.883369}}, {"id": 5883906, "name": "Allenford", "state": "", "country": "CA", "coord": {"lon": -81.166428, "lat": 44.550091}}, {"id": 5883987, "name": "Alliance", "state": "", "country": "CA", "coord": {"lon": -111.785027, "lat": 52.433449}}, {"id": 5884051, "name": "Alliston", "state": "", "country": "CA", "coord": {"lon": -79.866348, "lat": 44.150108}}, {"id": 5884083, "name": "Alma", "state": "", "country": "CA", "coord": {"lon": -71.649101, "lat": 48.550091}}, {"id": 5884107, "name": "Almdals Cove", "state": "", "country": "CA", "coord": {"lon": -96.57621, "lat": 50.47031}}, {"id": 5884208, "name": "Alsask", "state": "", "country": "CA", "coord": {"lon": -109.984901, "lat": 51.350128}}, {"id": 5884260, "name": "Altona", "state": "", "country": "CA", "coord": {"lon": -97.559608, "lat": 49.104691}}, {"id": 5884282, "name": "Alvena", "state": "", "country": "CA", "coord": {"lon": -106.017853, "lat": 52.516769}}, {"id": 5884342, "name": "Amaranth", "state": "", "country": "CA", "coord": {"lon": -98.739059, "lat": 50.595619}}, {"id": 5884467, "name": "Amherst", "state": "", "country": "CA", "coord": {"lon": -64.198738, "lat": 45.83345}}, {"id": 5884469, "name": "Amherst", "state": "", "country": "CA", "coord": {"lon": -74.765961, "lat": 46.050091}}, {"id": 5884472, "name": "Amherstburg", "state": "", "country": "CA", "coord": {"lon": -83.099854, "lat": 42.10009}}, {"id": 5884473, "name": "Amherstburg", "state": "", "country": "CA", "coord": {"lon": -83.04985, "lat": 42.116791}}, {"id": 5884588, "name": "Amos", "state": "", "country": "CA", "coord": {"lon": -78.116241, "lat": 48.566879}}, {"id": 5884667, "name": "Amyot", "state": "", "country": "CA", "coord": {"lon": -84.949821, "lat": 48.483391}}, {"id": 5885030, "name": "Andrew", "state": "", "country": "CA", "coord": {"lon": -112.351891, "lat": 53.883461}}, {"id": 5885237, "name": "Angliers", "state": "", "country": "CA", "coord": {"lon": -79.232948, "lat": 47.550152}}, {"id": 5885280, "name": "Angus", "state": "", "country": "CA", "coord": {"lon": -79.88295, "lat": 44.316811}}, {"id": 5885421, "name": "Annapolis Royal", "state": "", "country": "CA", "coord": {"lon": -65.515533, "lat": 44.750149}}, {"id": 5886182, "name": "Antigonish", "state": "", "country": "CA", "coord": {"lon": -61.998581, "lat": 45.616852}}, {"id": 5886432, "name": "Applegrove", "state": "", "country": "CA", "coord": {"lon": -118.085571, "lat": 49.783169}}, {"id": 5886492, "name": "Apsley", "state": "", "country": "CA", "coord": {"lon": -78.099518, "lat": 44.750118}}, {"id": 5886559, "name": "Arborfield", "state": "", "country": "CA", "coord": {"lon": -103.650917, "lat": 53.10006}}, {"id": 5886561, "name": "Arborg", "state": "", "country": "CA", "coord": {"lon": -97.217567, "lat": 50.907211}}, {"id": 5886590, "name": "Arcadia", "state": "", "country": "CA", "coord": {"lon": -116.135757, "lat": 55.400101}}, {"id": 5886730, "name": "Arcola", "state": "", "country": "CA", "coord": {"lon": -102.484253, "lat": 49.633339}}, {"id": 5886735, "name": "Arctic Bay", "state": "", "country": "CA", "coord": {"lon": -85.166298, "lat": 73.034714}}, {"id": 5886786, "name": "Ardmore", "state": "", "country": "CA", "coord": {"lon": -110.485031, "lat": 54.333469}}, {"id": 5886795, "name": "Ardrossan", "state": "", "country": "CA", "coord": {"lon": -113.135292, "lat": 53.55014}}, {"id": 5886799, "name": "Arelee", "state": "", "country": "CA", "coord": {"lon": -107.501289, "lat": 52.250111}}, {"id": 5886863, "name": "Argyle", "state": "", "country": "CA", "coord": {"lon": -65.848846, "lat": 43.800159}}, {"id": 5886889, "name": "Argyle Shore", "state": "", "country": "CA", "coord": {"lon": -63.348701, "lat": 46.166821}}, {"id": 5887013, "name": "Armley", "state": "", "country": "CA", "coord": {"lon": -104.034241, "lat": 53.11676}}, {"id": 5887023, "name": "Armour Heights", "state": "", "country": "CA", "coord": {"lon": -79.431068, "lat": 43.745991}}, {"id": 5887048, "name": "Armstrong", "state": "", "country": "CA", "coord": {"lon": -119.202347, "lat": 50.449791}}, {"id": 5887116, "name": "Armstrong Station", "state": "", "country": "CA", "coord": {"lon": -89.033371, "lat": 50.300121}}, {"id": 5887214, "name": "Arnprior", "state": "", "country": "CA", "coord": {"lon": -76.349388, "lat": 45.433411}}, {"id": 5887355, "name": "Arthur", "state": "", "country": "CA", "coord": {"lon": -80.536911, "lat": 43.832111}}, {"id": 5887448, "name": "Arviat", "state": "", "country": "CA", "coord": {"lon": -94.058479, "lat": 61.108829}}, {"id": 5887470, "name": "Asbestos", "state": "", "country": "CA", "coord": {"lon": -71.932404, "lat": 45.766781}}, {"id": 5887483, "name": "Ascot Corner", "state": "", "country": "CA", "coord": {"lon": -71.76577, "lat": 45.450081}}, {"id": 5887531, "name": "Ashcroft", "state": "", "country": "CA", "coord": {"lon": -121.285896, "lat": 50.716461}}, {"id": 5887546, "name": "Ashern", "state": "", "country": "CA", "coord": {"lon": -98.346329, "lat": 51.182209}}, {"id": 5887609, "name": "Ashmont", "state": "", "country": "CA", "coord": {"lon": -111.56852, "lat": 54.133469}}, {"id": 5887645, "name": "Ashville", "state": "", "country": "CA", "coord": {"lon": -100.296638, "lat": 51.175011}}, {"id": 5887666, "name": "Asinkaanumevatt", "state": "", "country": "CA", "coord": {"lon": -96.852524, "lat": 52.25811}}, {"id": 5887766, "name": "Asquith", "state": "", "country": "CA", "coord": {"lon": -107.217972, "lat": 52.116791}}, {"id": 5887798, "name": "Assiniboia", "state": "", "country": "CA", "coord": {"lon": -105.984459, "lat": 49.633362}}, {"id": 5887916, "name": "Athabasca", "state": "", "country": "CA", "coord": {"lon": -113.28537, "lat": 54.716869}}, {"id": 5887973, "name": "Atikameg", "state": "", "country": "CA", "coord": {"lon": -115.652458, "lat": 55.933449}}, {"id": 5888001, "name": "Atikokan", "state": "", "country": "CA", "coord": {"lon": -91.621597, "lat": 48.755508}}, {"id": 5888081, "name": "Atlin", "state": "", "country": "CA", "coord": {"lon": -133.689453, "lat": 59.578072}}, {"id": 5888093, "name": "Atmore", "state": "", "country": "CA", "coord": {"lon": -112.551971, "lat": 54.816891}}, {"id": 5888100, "name": "Atnarko", "state": "", "country": "CA", "coord": {"lon": -125.836418, "lat": 52.399761}}, {"id": 5888355, "name": "Aupaluk", "state": "", "country": "CA", "coord": {"lon": -69.598534, "lat": 59.300411}}, {"id": 5888377, "name": "Aurora", "state": "", "country": "CA", "coord": {"lon": -79.466316, "lat": 44.000111}}, {"id": 5888406, "name": "Austin", "state": "", "country": "CA", "coord": {"lon": -98.936882, "lat": 49.950329}}, {"id": 5888441, "name": "Authier", "state": "", "country": "CA", "coord": {"lon": -78.849602, "lat": 48.733479}}, {"id": 5888444, "name": "Authier-Nord", "state": "", "country": "CA", "coord": {"lon": -78.86631, "lat": 48.833481}}, {"id": 5888501, "name": "Avenir", "state": "", "country": "CA", "coord": {"lon": -112.268639, "lat": 55.033508}}, {"id": 5888548, "name": "Avola", "state": "", "country": "CA", "coord": {"lon": -119.31913, "lat": 51.783199}}, {"id": 5888569, "name": "Avonlea", "state": "", "country": "CA", "coord": {"lon": -105.06781, "lat": 50.016769}}, {"id": 5888574, "name": "Avonport", "state": "", "country": "CA", "coord": {"lon": -64.248749, "lat": 45.100151}}, {"id": 5888681, "name": "Ayer's Cliff", "state": "", "country": "CA", "coord": {"lon": -72.04908, "lat": 45.16679}}, {"id": 5888701, "name": "Aylesbury", "state": "", "country": "CA", "coord": {"lon": -105.684471, "lat": 50.933361}}, {"id": 5888703, "name": "Aylesford", "state": "", "country": "CA", "coord": {"lon": -64.832092, "lat": 45.033451}}, {"id": 5888714, "name": "Aylmer, Gatineau", "state": "", "country": "CA", "coord": {"lon": -75.839661, "lat": 45.397301}}, {"id": 5888716, "name": "Aylmer", "state": "", "country": "CA", "coord": {"lon": -80.983017, "lat": 42.766788}}, {"id": 5888726, "name": "Aylsham", "state": "", "country": "CA", "coord": {"lon": -103.817619, "lat": 53.200062}}, {"id": 5888737, "name": "Ayr", "state": "", "country": "CA", "coord": {"lon": -80.449677, "lat": 43.283401}}, {"id": 5888745, "name": "Ayton", "state": "", "country": "CA", "coord": {"lon": -80.916428, "lat": 44.050091}}, {"id": 5889167, "name": "Baden", "state": "", "country": "CA", "coord": {"lon": -80.649696, "lat": 43.400101}}, {"id": 5889189, "name": "Badger", "state": "", "country": "CA", "coord": {"lon": -56.03154, "lat": 48.98325}}, {"id": 5889745, "name": "Baie-Comeau", "state": "", "country": "CA", "coord": {"lon": -68.148941, "lat": 49.216789}}, {"id": 5890542, "name": "Baie-D'Urf\u00e9", "state": "", "country": "CA", "coord": {"lon": -73.915863, "lat": 45.413971}}, {"id": 5891492, "name": "Baie-Trinit\u00e9", "state": "", "country": "CA", "coord": {"lon": -67.298866, "lat": 49.41679}}, {"id": 5891545, "name": "Baie Verte", "state": "", "country": "CA", "coord": {"lon": -56.181519, "lat": 49.93325}}, {"id": 5891628, "name": "Bailey", "state": "", "country": "CA", "coord": {"lon": -66.582169, "lat": 45.63343}}, {"id": 5891871, "name": "Baker Lake", "state": "", "country": "CA", "coord": {"lon": -96.021233, "lat": 64.320091}}, {"id": 5891925, "name": "Bakers Narrows", "state": "", "country": "CA", "coord": {"lon": -101.661079, "lat": 54.67733}}, {"id": 5891964, "name": "Balcarres", "state": "", "country": "CA", "coord": {"lon": -103.551018, "lat": 50.80006}}, {"id": 5892066, "name": "Baldonnel", "state": "", "country": "CA", "coord": {"lon": -120.686203, "lat": 56.199879}}, {"id": 5892114, "name": "Baldur", "state": "", "country": "CA", "coord": {"lon": -99.24472, "lat": 49.385319}}, {"id": 5892174, "name": "Balfour", "state": "", "country": "CA", "coord": {"lon": -116.968887, "lat": 49.6166}}, {"id": 5892426, "name": "Balzac", "state": "", "country": "CA", "coord": {"lon": -114.018677, "lat": 51.216808}}, {"id": 5892444, "name": "Bamfield", "state": "", "country": "CA", "coord": {"lon": -125.136093, "lat": 48.832909}}, {"id": 5892509, "name": "Bancroft", "state": "", "country": "CA", "coord": {"lon": -77.849503, "lat": 45.050129}}, {"id": 5892510, "name": "Bancroft", "state": "", "country": "CA", "coord": {"lon": -77.857018, "lat": 45.057522}}, {"id": 5892532, "name": "Banff", "state": "", "country": "CA", "coord": {"lon": -115.569817, "lat": 51.17622}}, {"id": 5892761, "name": "Baragar", "state": "", "country": "CA", "coord": {"lon": -99.916656, "lat": 49.87112}}, {"id": 5893004, "name": "Barich", "state": "", "country": "CA", "coord": {"lon": -112.635246, "lat": 54.200169}}, {"id": 5893064, "name": "Barkerville", "state": "", "country": "CA", "coord": {"lon": -121.519478, "lat": 53.066608}}, {"id": 5893148, "name": "Barnaby River", "state": "", "country": "CA", "coord": {"lon": -65.51545, "lat": 46.883411}}, {"id": 5893325, "name": "Barons", "state": "", "country": "CA", "coord": {"lon": -113.085167, "lat": 50.000019}}, {"id": 5894033, "name": "Barraute", "state": "", "country": "CA", "coord": {"lon": -77.63279, "lat": 48.433491}}, {"id": 5894162, "name": "Barrhaven", "state": "", "country": "CA", "coord": {"lon": -75.749191, "lat": 45.274891}}, {"id": 5894164, "name": "Barrhead", "state": "", "country": "CA", "coord": {"lon": -114.402107, "lat": 54.13345}}, {"id": 5894171, "name": "Barrie", "state": "", "country": "CA", "coord": {"lon": -79.666344, "lat": 44.400108}}, {"id": 5894228, "name": "Barrington", "state": "", "country": "CA", "coord": {"lon": -65.565529, "lat": 43.56686}}, {"id": 5894299, "name": "Barrows", "state": "", "country": "CA", "coord": {"lon": -101.442009, "lat": 52.829449}}, {"id": 5894506, "name": "Barwick", "state": "", "country": "CA", "coord": {"lon": -93.98365, "lat": 48.650002}}, {"id": 5894570, "name": "Bashaw", "state": "", "country": "CA", "coord": {"lon": -112.968651, "lat": 52.58342}}, {"id": 5894642, "name": "Bassano", "state": "", "country": "CA", "coord": {"lon": -112.468536, "lat": 50.783421}}, {"id": 5894886, "name": "Bateman", "state": "", "country": "CA", "coord": {"lon": -106.751251, "lat": 50.009762}}, {"id": 5894924, "name": "Bath", "state": "", "country": "CA", "coord": {"lon": -76.78273, "lat": 44.183418}}, {"id": 5894962, "name": "Batiscan", "state": "", "country": "CA", "coord": {"lon": -72.251503, "lat": 46.494701}}, {"id": 5895070, "name": "Battleford", "state": "", "country": "CA", "coord": {"lon": -108.318062, "lat": 52.733429}}, {"id": 5895200, "name": "Bauline", "state": "", "country": "CA", "coord": {"lon": -52.831348, "lat": 47.716591}}, {"id": 5895263, "name": "Bay Bulls", "state": "", "country": "CA", "coord": {"lon": -52.814751, "lat": 47.316589}}, {"id": 5895309, "name": "Bayfield", "state": "", "country": "CA", "coord": {"lon": -81.699783, "lat": 43.566792}}, {"id": 5895424, "name": "Bay Roberts", "state": "", "country": "CA", "coord": {"lon": -53.264778, "lat": 47.599892}}, {"id": 5895502, "name": "Beachburg", "state": "", "country": "CA", "coord": {"lon": -76.849426, "lat": 45.73341}}, {"id": 5895613, "name": "Beaconia", "state": "", "country": "CA", "coord": {"lon": -96.558113, "lat": 50.44561}}, {"id": 5895650, "name": "Beaconsfield", "state": "", "country": "CA", "coord": {"lon": -73.86586, "lat": 45.433411}}, {"id": 5895710, "name": "Beamsville", "state": "", "country": "CA", "coord": {"lon": -79.48291, "lat": 43.166809}}, {"id": 5896151, "name": "B\u00e9arn", "state": "", "country": "CA", "coord": {"lon": -79.332962, "lat": 47.283451}}, {"id": 5896216, "name": "Bear River", "state": "", "country": "CA", "coord": {"lon": -65.648842, "lat": 44.566849}}, {"id": 5896263, "name": "Bearskin Lake", "state": "", "country": "CA", "coord": {"lon": -90.96685, "lat": 53.91684}}, {"id": 5896390, "name": "Beatty", "state": "", "country": "CA", "coord": {"lon": -104.80098, "lat": 52.900028}}, {"id": 5896495, "name": "Beauharnois", "state": "", "country": "CA", "coord": {"lon": -73.865898, "lat": 45.31678}}, {"id": 5896501, "name": "Beaulac-Garthby", "state": "", "country": "CA", "coord": {"lon": -71.382393, "lat": 45.83337}}, {"id": 5896522, "name": "Beaumont", "state": "", "country": "CA", "coord": {"lon": -113.418709, "lat": 53.350128}}, {"id": 5896549, "name": "Beausejour", "state": "", "country": "CA", "coord": {"lon": -96.516693, "lat": 50.062199}}, {"id": 5896578, "name": "Beauval", "state": "", "country": "CA", "coord": {"lon": -107.618073, "lat": 55.150181}}, {"id": 5896584, "name": "Beaux-Rivages--Lac-des-\u00c9corces--Val-Barrette", "state": "", "country": "CA", "coord": {"lon": -75.299294, "lat": 46.533409}}, {"id": 5896660, "name": "Beaver Cove", "state": "", "country": "CA", "coord": {"lon": -54.381409, "lat": 49.416618}}, {"id": 5896732, "name": "Beaver Crossing", "state": "", "country": "CA", "coord": {"lon": -110.218391, "lat": 54.35017}}, {"id": 5896969, "name": "Beaverlodge", "state": "", "country": "CA", "coord": {"lon": -119.43605, "lat": 55.21664}}, {"id": 5896992, "name": "Beaver Mines", "state": "", "country": "CA", "coord": {"lon": -114.201958, "lat": 49.450001}}, {"id": 5897183, "name": "Beaverton", "state": "", "country": "CA", "coord": {"lon": -79.149597, "lat": 44.433418}}, {"id": 5897201, "name": "Beazer", "state": "", "country": "CA", "coord": {"lon": -113.485199, "lat": 49.116661}}, {"id": 5897209, "name": "B\u00e9cancour", "state": "", "country": "CA", "coord": {"lon": -72.432411, "lat": 46.333359}}, {"id": 5897310, "name": "Beddington", "state": "", "country": "CA", "coord": {"lon": -114.051979, "lat": 51.150108}}, {"id": 5897321, "name": "Bedford", "state": "", "country": "CA", "coord": {"lon": -63.66732, "lat": 44.725521}}, {"id": 5897323, "name": "Bedford", "state": "", "country": "CA", "coord": {"lon": -72.982437, "lat": 45.116779}}, {"id": 5897324, "name": "Bedford", "state": "", "country": "CA", "coord": {"lon": -72.965843, "lat": 45.133381}}, {"id": 5897469, "name": "Beechy", "state": "", "country": "CA", "coord": {"lon": -107.384613, "lat": 50.883369}}, {"id": 5897594, "name": "Beiseker", "state": "", "country": "CA", "coord": {"lon": -113.535248, "lat": 51.383419}}, {"id": 5897622, "name": "Belanger", "state": "", "country": "CA", "coord": {"lon": -109.318176, "lat": 49.56675}}, {"id": 5897670, "name": "Belcourt", "state": "", "country": "CA", "coord": {"lon": -77.349457, "lat": 48.400188}}, {"id": 5897730, "name": "Bella Bella", "state": "", "country": "CA", "coord": {"lon": -128.147705, "lat": 52.163528}}, {"id": 5897766, "name": "Bellburns", "state": "", "country": "CA", "coord": {"lon": -57.531551, "lat": 50.333328}}, {"id": 5897854, "name": "Belleoram", "state": "", "country": "CA", "coord": {"lon": -55.415009, "lat": 47.51664}}, {"id": 5897858, "name": "Belle Plaine", "state": "", "country": "CA", "coord": {"lon": -105.151123, "lat": 50.40007}}, {"id": 5897865, "name": "Belle River", "state": "", "country": "CA", "coord": {"lon": -82.71653, "lat": 42.300079}}, {"id": 5897884, "name": "Belleville", "state": "", "country": "CA", "coord": {"lon": -77.382767, "lat": 44.166821}}, {"id": 5897885, "name": "Belleville", "state": "", "country": "CA", "coord": {"lon": -77.370529, "lat": 44.178761}}, {"id": 5897898, "name": "Bellevue", "state": "", "country": "CA", "coord": {"lon": -114.36869, "lat": 49.583321}}, {"id": 5897934, "name": "Bellis", "state": "", "country": "CA", "coord": {"lon": -112.151901, "lat": 54.150169}}, {"id": 5897959, "name": "Bell Island Front", "state": "", "country": "CA", "coord": {"lon": -52.934158, "lat": 47.63129}}, {"id": 5898070, "name": "Bells Corners", "state": "", "country": "CA", "coord": {"lon": -75.830116, "lat": 45.31588}}, {"id": 5898078, "name": "Bellshill", "state": "", "country": "CA", "coord": {"lon": -111.518402, "lat": 52.566841}}, {"id": 5898121, "name": "Belmont", "state": "", "country": "CA", "coord": {"lon": -63.381989, "lat": 45.416851}}, {"id": 5898126, "name": "Belmont", "state": "", "country": "CA", "coord": {"lon": -99.457222, "lat": 49.40942}}, {"id": 5898138, "name": "Beloeil", "state": "", "country": "CA", "coord": {"lon": -73.19915, "lat": 45.56678}}, {"id": 5898240, "name": "Benalto", "state": "", "country": "CA", "coord": {"lon": -114.285309, "lat": 52.30011}}, {"id": 5898304, "name": "Bengough", "state": "", "country": "CA", "coord": {"lon": -105.134392, "lat": 49.400059}}, {"id": 5898322, "name": "Benito", "state": "", "country": "CA", "coord": {"lon": -101.54921, "lat": 51.913891}}, {"id": 5898596, "name": "Bentley", "state": "", "country": "CA", "coord": {"lon": -114.06871, "lat": 52.466808}}, {"id": 5898612, "name": "Benton", "state": "", "country": "CA", "coord": {"lon": -54.414829, "lat": 48.89991}}, {"id": 5898613, "name": "Benton", "state": "", "country": "CA", "coord": {"lon": -67.598923, "lat": 45.983398}}, {"id": 5898662, "name": "Berens Landing", "state": "", "country": "CA", "coord": {"lon": -120.929359, "lat": 61.827999}}, {"id": 5898664, "name": "Berens River", "state": "", "country": "CA", "coord": {"lon": -97.029831, "lat": 52.365311}}, {"id": 5898671, "name": "Beresford", "state": "", "country": "CA", "coord": {"lon": -120.252487, "lat": 50.583069}}, {"id": 5898720, "name": "Bergen", "state": "", "country": "CA", "coord": {"lon": -114.635323, "lat": 51.7001}}, {"id": 5898971, "name": "Berry Mills", "state": "", "country": "CA", "coord": {"lon": -64.948769, "lat": 46.116852}}, {"id": 5898988, "name": "Berrys", "state": "", "country": "CA", "coord": {"lon": -75.924362, "lat": 45.425098}}, {"id": 5899017, "name": "Berthierville", "state": "", "country": "CA", "coord": {"lon": -73.182449, "lat": 46.083359}}, {"id": 5899061, "name": "Berwick", "state": "", "country": "CA", "coord": {"lon": -64.732079, "lat": 45.050152}}, {"id": 5899068, "name": "Berwyn", "state": "", "country": "CA", "coord": {"lon": -117.736008, "lat": 56.150082}}, {"id": 5899156, "name": "Bethany", "state": "", "country": "CA", "coord": {"lon": -78.566254, "lat": 44.183418}}, {"id": 5899182, "name": "Bethune", "state": "", "country": "CA", "coord": {"lon": -105.217827, "lat": 50.71677}}, {"id": 5899268, "name": "Beulah", "state": "", "country": "CA", "coord": {"lon": -101.037613, "lat": 50.260601}}, {"id": 5899368, "name": "Bible Hill", "state": "", "country": "CA", "coord": {"lon": -63.281979, "lat": 45.366852}}, {"id": 5899554, "name": "Big Beaver", "state": "", "country": "CA", "coord": {"lon": -105.167778, "lat": 49.100052}}, {"id": 5899631, "name": "Big Brook", "state": "", "country": "CA", "coord": {"lon": -56.14801, "lat": 51.516788}}, {"id": 5899787, "name": "Big Cove", "state": "", "country": "CA", "coord": {"lon": -64.972031, "lat": 46.577091}}, {"id": 5899819, "name": "Big Creek", "state": "", "country": "CA", "coord": {"lon": -123.036186, "lat": 51.716518}}, {"id": 5899982, "name": "Biggar", "state": "", "country": "CA", "coord": {"lon": -108.00135, "lat": 52.066799}}, {"id": 5900745, "name": "Big River", "state": "", "country": "CA", "coord": {"lon": -107.01783, "lat": 53.833408}}, {"id": 5901012, "name": "Big Valley", "state": "", "country": "CA", "coord": {"lon": -112.768593, "lat": 52.033421}}, {"id": 5901079, "name": "Bilby", "state": "", "country": "CA", "coord": {"lon": -114.102058, "lat": 53.700142}}, {"id": 5901280, "name": "Bindloss", "state": "", "country": "CA", "coord": {"lon": -110.268341, "lat": 50.866829}}, {"id": 5901331, "name": "Binscarth", "state": "", "country": "CA", "coord": {"lon": -101.283707, "lat": 50.62669}}, {"id": 5901447, "name": "Birch Hills", "state": "", "country": "CA", "coord": {"lon": -105.417732, "lat": 52.98336}}, {"id": 5901471, "name": "Birch Island", "state": "", "country": "CA", "coord": {"lon": -81.783089, "lat": 46.050072}}, {"id": 5901657, "name": "Birch River", "state": "", "country": "CA", "coord": {"lon": -101.104782, "lat": 52.396118}}, {"id": 5901684, "name": "Birchy Bay", "state": "", "country": "CA", "coord": {"lon": -54.73143, "lat": 49.34993}}, {"id": 5901740, "name": "Bird Cove", "state": "", "country": "CA", "coord": {"lon": -56.931412, "lat": 51.050079}}, {"id": 5901886, "name": "Birsay", "state": "", "country": "CA", "coord": {"lon": -106.984581, "lat": 51.100071}}, {"id": 5901898, "name": "Birtle", "state": "", "country": "CA", "coord": {"lon": -101.048401, "lat": 50.422501}}, {"id": 5901919, "name": "Biscotasing", "state": "", "country": "CA", "coord": {"lon": -82.0998, "lat": 47.28339}}, {"id": 5901989, "name": "Bishop's Falls", "state": "", "country": "CA", "coord": {"lon": -55.481499, "lat": 49.01664}}, {"id": 5901993, "name": "Bishop's Harbour", "state": "", "country": "CA", "coord": {"lon": -53.63139, "lat": 48.683201}}, {"id": 5902030, "name": "Bissett", "state": "", "country": "CA", "coord": {"lon": -95.681633, "lat": 51.025021}}, {"id": 5902088, "name": "Bittern Lake", "state": "", "country": "CA", "coord": {"lon": -113.051971, "lat": 53.016842}}, {"id": 5902121, "name": "Bjorkdale", "state": "", "country": "CA", "coord": {"lon": -103.65097, "lat": 52.716709}}, {"id": 5902447, "name": "Black Creek", "state": "", "country": "CA", "coord": {"lon": -121.102669, "lat": 52.299881}}, {"id": 5902458, "name": "Black Diamond", "state": "", "country": "CA", "coord": {"lon": -114.235298, "lat": 50.700111}}, {"id": 5902599, "name": "Blackfalds", "state": "", "country": "CA", "coord": {"lon": -113.785301, "lat": 52.383419}}, {"id": 5902755, "name": "Blackie", "state": "", "country": "CA", "coord": {"lon": -113.618652, "lat": 50.600101}}, {"id": 5903420, "name": "Blackville", "state": "", "country": "CA", "coord": {"lon": -65.831863, "lat": 46.739799}}, {"id": 5903423, "name": "Blackwater", "state": "", "country": "CA", "coord": {"lon": -79.049583, "lat": 44.233421}}, {"id": 5903496, "name": "Bladworth", "state": "", "country": "CA", "coord": {"lon": -106.134499, "lat": 51.36676}}, {"id": 5903504, "name": "Blaine Lake", "state": "", "country": "CA", "coord": {"lon": -106.901169, "lat": 52.833401}}, {"id": 5903510, "name": "Blainville", "state": "", "country": "CA", "coord": {"lon": -73.882492, "lat": 45.666779}}, {"id": 5903535, "name": "Blairmore", "state": "", "country": "CA", "coord": {"lon": -114.435303, "lat": 49.600021}}, {"id": 5903664, "name": "Blanc-Sablon", "state": "", "country": "CA", "coord": {"lon": -57.13142, "lat": 51.416801}}, {"id": 5903742, "name": "Blenheim", "state": "", "country": "CA", "coord": {"lon": -81.999779, "lat": 42.333389}}, {"id": 5903851, "name": "Blind River", "state": "", "country": "CA", "coord": {"lon": -82.958168, "lat": 46.183361}}, {"id": 5903881, "name": "Bliss Landing", "state": "", "country": "CA", "coord": {"lon": -124.819572, "lat": 50.032928}}, {"id": 5904114, "name": "Blucher", "state": "", "country": "CA", "coord": {"lon": -106.201202, "lat": 52.016769}}, {"id": 5904414, "name": "The Blue Mountains", "state": "", "country": "CA", "coord": {"lon": -80.458, "lat": 44.558399}}, {"id": 5904450, "name": "Blue River", "state": "", "country": "CA", "coord": {"lon": -119.310493, "lat": 52.110088}}, {"id": 5904482, "name": "Bluesky", "state": "", "country": "CA", "coord": {"lon": -118.236053, "lat": 56.066761}}, {"id": 5904619, "name": "Bluffton", "state": "", "country": "CA", "coord": {"lon": -114.285332, "lat": 52.750111}}, {"id": 5904742, "name": "Boat Harbour", "state": "", "country": "CA", "coord": {"lon": -123.802696, "lat": 49.082932}}, {"id": 5904987, "name": "Bodo", "state": "", "country": "CA", "coord": {"lon": -110.084869, "lat": 52.150131}}, {"id": 5905132, "name": "Boisbriand", "state": "", "country": "CA", "coord": {"lon": -73.832489, "lat": 45.616779}}, {"id": 5905138, "name": "Boisdale", "state": "", "country": "CA", "coord": {"lon": -60.49847, "lat": 46.10014}}, {"id": 5905152, "name": "Bois-des-Filion", "state": "", "country": "CA", "coord": {"lon": -73.749184, "lat": 45.666779}}, {"id": 5905191, "name": "Boissevain", "state": "", "country": "CA", "coord": {"lon": -100.055862, "lat": 49.230621}}, {"id": 5905308, "name": "Bolton", "state": "", "country": "CA", "coord": {"lon": -79.737907, "lat": 43.87952}}, {"id": 5905331, "name": "Bolton-Ouest", "state": "", "country": "CA", "coord": {"lon": -72.449112, "lat": 45.233379}}, {"id": 5905348, "name": "Bon Accord", "state": "", "country": "CA", "coord": {"lon": -113.418716, "lat": 53.83345}}, {"id": 5905393, "name": "Bonavista", "state": "", "country": "CA", "coord": {"lon": -53.114738, "lat": 48.649891}}, {"id": 5905486, "name": "Bongard", "state": "", "country": "CA", "coord": {"lon": -76.94944, "lat": 44.05011}}, {"id": 5905616, "name": "Bonnyville", "state": "", "country": "CA", "coord": {"lon": -110.735046, "lat": 54.266842}}, {"id": 5905868, "name": "Bordeaux", "state": "", "country": "CA", "coord": {"lon": -73.693077, "lat": 45.542278}}, {"id": 5905875, "name": "Borden", "state": "", "country": "CA", "coord": {"lon": -63.694519, "lat": 46.25433}}, {"id": 5906087, "name": "Boswarlos", "state": "", "country": "CA", "coord": {"lon": -58.81522, "lat": 48.566719}}, {"id": 5906088, "name": "Boswell", "state": "", "country": "CA", "coord": {"lon": -116.768867, "lat": 49.449879}}, {"id": 5906222, "name": "Bottrel", "state": "", "country": "CA", "coord": {"lon": -114.485321, "lat": 51.400108}}, {"id": 5906229, "name": "Botwood", "state": "", "country": "CA", "coord": {"lon": -55.34819, "lat": 49.14994}}, {"id": 5906267, "name": "Boucherville", "state": "", "country": "CA", "coord": {"lon": -73.43605, "lat": 45.591042}}, {"id": 5906269, "name": "Bouchette", "state": "", "country": "CA", "coord": {"lon": -75.966049, "lat": 46.216808}}, {"id": 5906281, "name": "Bouctouche", "state": "", "country": "CA", "coord": {"lon": -64.739052, "lat": 46.468441}}, {"id": 5906575, "name": "Bourget", "state": "", "country": "CA", "coord": {"lon": -75.1493, "lat": 45.433399}}, {"id": 5906592, "name": "Bourlamaque", "state": "", "country": "CA", "coord": {"lon": -77.76619, "lat": 48.100182}}, {"id": 5906664, "name": "Bowden", "state": "", "country": "CA", "coord": {"lon": -114.035294, "lat": 51.916809}}, {"id": 5906690, "name": "Bowen Island", "state": "", "country": "CA", "coord": {"lon": -123.33596, "lat": 49.38295}}, {"id": 5906752, "name": "Bowesville", "state": "", "country": "CA", "coord": {"lon": -75.666039, "lat": 45.316799}}, {"id": 5906757, "name": "Bow Island", "state": "", "country": "CA", "coord": {"lon": -111.368431, "lat": 49.86676}}, {"id": 5906831, "name": "Bowmanville", "state": "", "country": "CA", "coord": {"lon": -78.682861, "lat": 43.916821}}, {"id": 5906853, "name": "Bowser", "state": "", "country": "CA", "coord": {"lon": -124.669502, "lat": 49.43293}}, {"id": 5907019, "name": "Boyle", "state": "", "country": "CA", "coord": {"lon": -112.81871, "lat": 54.583481}}, {"id": 5907092, "name": "Bracebridge", "state": "", "country": "CA", "coord": {"lon": -79.31633, "lat": 45.033409}}, {"id": 5907104, "name": "Bracken", "state": "", "country": "CA", "coord": {"lon": -108.101341, "lat": 49.183331}}, {"id": 5907106, "name": "Brackendale", "state": "", "country": "CA", "coord": {"lon": -123.152679, "lat": 49.766369}}, {"id": 5907166, "name": "Bradford", "state": "", "country": "CA", "coord": {"lon": -79.566322, "lat": 44.11681}}, {"id": 5907180, "name": "Bradford West Gwillimbury", "state": "", "country": "CA", "coord": {"lon": -79.616333, "lat": 44.11681}}, {"id": 5907294, "name": "Braeside", "state": "", "country": "CA", "coord": {"lon": -76.399391, "lat": 45.466808}}, {"id": 5907364, "name": "Brampton", "state": "", "country": "CA", "coord": {"lon": -79.766327, "lat": 43.683411}}, {"id": 5907368, "name": "Branch", "state": "", "country": "CA", "coord": {"lon": -53.948139, "lat": 46.883202}}, {"id": 5907896, "name": "Brandon", "state": "", "country": "CA", "coord": {"lon": -99.953056, "lat": 49.84692}}, {"id": 5907983, "name": "Brant", "state": "", "country": "CA", "coord": {"lon": -80.34967, "lat": 43.1334}}, {"id": 5907990, "name": "Brantford", "state": "", "country": "CA", "coord": {"lon": -80.266357, "lat": 43.1334}}, {"id": 5908111, "name": "Braund Port", "state": "", "country": "CA", "coord": {"lon": -78.332832, "lat": 44.266819}}, {"id": 5908163, "name": "Brazeau", "state": "", "country": "CA", "coord": {"lon": -116.08551, "lat": 52.466782}}, {"id": 5908319, "name": "Brechin", "state": "", "country": "CA", "coord": {"lon": -79.177269, "lat": 44.547661}}, {"id": 5908337, "name": "Bredenbury", "state": "", "country": "CA", "coord": {"lon": -102.050941, "lat": 50.950001}}, {"id": 5908408, "name": "Brem River", "state": "", "country": "CA", "coord": {"lon": -124.669601, "lat": 50.432949}}, {"id": 5908422, "name": "Brennan Harbour", "state": "", "country": "CA", "coord": {"lon": -82.385941, "lat": 46.187569}}, {"id": 5908443, "name": "Brent", "state": "", "country": "CA", "coord": {"lon": -78.482857, "lat": 46.033421}}, {"id": 5908473, "name": "Brentwood Bay", "state": "", "country": "CA", "coord": {"lon": -123.452621, "lat": 48.582939}}, {"id": 5908499, "name": "Breton", "state": "", "country": "CA", "coord": {"lon": -114.468781, "lat": 53.116821}}, {"id": 5908579, "name": "Breynat", "state": "", "country": "CA", "coord": {"lon": -112.468658, "lat": 55.133511}}, {"id": 5908672, "name": "Bridge Lake", "state": "", "country": "CA", "coord": {"lon": -120.719276, "lat": 51.483131}}, {"id": 5908691, "name": "Bridgeport", "state": "", "country": "CA", "coord": {"lon": -80.482986, "lat": 43.483398}}, {"id": 5908723, "name": "Bridgewater", "state": "", "country": "CA", "coord": {"lon": -64.515457, "lat": 44.38345}}, {"id": 5908749, "name": "Briercrest", "state": "", "country": "CA", "coord": {"lon": -105.26783, "lat": 50.166771}}, {"id": 5908835, "name": "Brighton", "state": "", "country": "CA", "coord": {"lon": -77.732788, "lat": 44.033421}}, {"id": 5908881, "name": "Brigus", "state": "", "country": "CA", "coord": {"lon": -53.210579, "lat": 47.524891}}, {"id": 5908935, "name": "Brindle Crossing", "state": "", "country": "CA", "coord": {"lon": -77.332771, "lat": 45.933418}}, {"id": 5908999, "name": "Bristol", "state": "", "country": "CA", "coord": {"lon": -76.466103, "lat": 45.533409}}, {"id": 5909024, "name": "Britannia", "state": "", "country": "CA", "coord": {"lon": -75.793747, "lat": 45.3629}}, {"id": 5909028, "name": "Britannia Beach", "state": "", "country": "CA", "coord": {"lon": -123.202667, "lat": 49.632969}}, {"id": 5909050, "name": "British Columbia", "state": "", "country": "CA", "coord": {"lon": -125.003197, "lat": 53.999828}}, {"id": 5909067, "name": "Britt", "state": "", "country": "CA", "coord": {"lon": -80.559181, "lat": 45.774231}}, {"id": 5909230, "name": "Broadview", "state": "", "country": "CA", "coord": {"lon": -102.584312, "lat": 50.36673}}, {"id": 5909245, "name": "Brochet", "state": "", "country": "CA", "coord": {"lon": -101.671806, "lat": 57.879978}}, {"id": 5909294, "name": "Brockville", "state": "", "country": "CA", "coord": {"lon": -75.68264, "lat": 44.583408}}, {"id": 5909303, "name": "Broderick", "state": "", "country": "CA", "coord": {"lon": -106.917969, "lat": 51.50008}}, {"id": 5909391, "name": "Bromhead", "state": "", "country": "CA", "coord": {"lon": -103.667686, "lat": 49.183361}}, {"id": 5909403, "name": "Bromont", "state": "", "country": "CA", "coord": {"lon": -72.649117, "lat": 45.31678}}, {"id": 5909464, "name": "Brookfield", "state": "", "country": "CA", "coord": {"lon": -63.281979, "lat": 45.250149}}, {"id": 5909467, "name": "Brookfield", "state": "", "country": "CA", "coord": {"lon": -96.060257, "lat": 50.134201}}, {"id": 5909514, "name": "Brooks", "state": "", "country": "CA", "coord": {"lon": -111.885094, "lat": 50.583408}}, {"id": 5909628, "name": "Brossard", "state": "", "country": "CA", "coord": {"lon": -73.465874, "lat": 45.450081}}, {"id": 5909629, "name": "Brossard", "state": "", "country": "CA", "coord": {"lon": -73.465828, "lat": 45.450081}}, {"id": 5909677, "name": "Broughton", "state": "", "country": "CA", "coord": {"lon": -59.965141, "lat": 46.083439}}, {"id": 5909847, "name": "Brownings Landing", "state": "", "country": "CA", "coord": {"lon": -119.802902, "lat": 61.300201}}, {"id": 5909969, "name": "Brownsburg-Chatham", "state": "", "country": "CA", "coord": {"lon": -74.415901, "lat": 45.683418}}, {"id": 5909998, "name": "Brownsdale", "state": "", "country": "CA", "coord": {"lon": -53.114761, "lat": 48.033192}}, {"id": 5910127, "name": "Bruce Mines", "state": "", "country": "CA", "coord": {"lon": -83.799919, "lat": 46.30006}}, {"id": 5910266, "name": "Bruno", "state": "", "country": "CA", "coord": {"lon": -105.51783, "lat": 52.266762}}, {"id": 5910429, "name": "Bryson", "state": "", "country": "CA", "coord": {"lon": -76.616112, "lat": 45.683411}}, {"id": 5910456, "name": "Buchanan", "state": "", "country": "CA", "coord": {"lon": -102.750961, "lat": 51.699982}}, {"id": 5910505, "name": "Buchans", "state": "", "country": "CA", "coord": {"lon": -56.8647, "lat": 48.816738}}, {"id": 5910564, "name": "Buckhorn", "state": "", "country": "CA", "coord": {"lon": -78.349541, "lat": 44.550121}}, {"id": 5910808, "name": "Buffalo", "state": "", "country": "CA", "coord": {"lon": -110.668373, "lat": 50.80011}}, {"id": 5910853, "name": "Buffalo Narrows", "state": "", "country": "CA", "coord": {"lon": -108.484749, "lat": 55.85017}}, {"id": 5911269, "name": "Bulyea", "state": "", "country": "CA", "coord": {"lon": -104.867828, "lat": 50.983379}}, {"id": 5911440, "name": "Burgeo", "state": "", "country": "CA", "coord": {"lon": -57.615162, "lat": 47.61668}}, {"id": 5911476, "name": "Burgis", "state": "", "country": "CA", "coord": {"lon": -102.450951, "lat": 51.549992}}, {"id": 5911483, "name": "Burgoynes Cove", "state": "", "country": "CA", "coord": {"lon": -53.71479, "lat": 48.183189}}, {"id": 5911570, "name": "Burk's Falls", "state": "", "country": "CA", "coord": {"lon": -79.399651, "lat": 45.616798}}, {"id": 5911592, "name": "Burlington", "state": "", "country": "CA", "coord": {"lon": -79.837128, "lat": 43.386211}}, {"id": 5911606, "name": "Burnaby", "state": "", "country": "CA", "coord": {"lon": -122.952629, "lat": 49.266361}}, {"id": 5911714, "name": "Burnside", "state": "", "country": "CA", "coord": {"lon": -53.798092, "lat": 48.716599}}, {"id": 5911745, "name": "Burns Lake", "state": "", "country": "CA", "coord": {"lon": -125.753304, "lat": 54.233101}}, {"id": 5912153, "name": "Burr", "state": "", "country": "CA", "coord": {"lon": -105.134422, "lat": 52.05006}}, {"id": 5912226, "name": "Burstall", "state": "", "country": "CA", "coord": {"lon": -109.901588, "lat": 50.65012}}, {"id": 5912314, "name": "Burwash Landing", "state": "", "country": "CA", "coord": {"lon": -139.009674, "lat": 61.35844}}, {"id": 5912338, "name": "Busby", "state": "", "country": "CA", "coord": {"lon": -113.885353, "lat": 53.95015}}, {"id": 5912366, "name": "Bushell Park", "state": "", "country": "CA", "coord": {"lon": -105.551147, "lat": 50.333351}}, {"id": 5912779, "name": "Buttonville", "state": "", "country": "CA", "coord": {"lon": -79.360863, "lat": 43.860592}}, {"id": 5912876, "name": "Byng Inlet", "state": "", "country": "CA", "coord": {"lon": -80.552658, "lat": 45.765942}}, {"id": 5913030, "name": "Cabri", "state": "", "country": "CA", "coord": {"lon": -108.468102, "lat": 50.616791}}, {"id": 5913049, "name": "Cache Creek", "state": "", "country": "CA", "coord": {"lon": -121.3246, "lat": 50.810108}}, {"id": 5913136, "name": "Cadillac", "state": "", "country": "CA", "coord": {"lon": -78.382858, "lat": 48.223782}}, {"id": 5913137, "name": "Cadillac", "state": "", "country": "CA", "coord": {"lon": -107.751343, "lat": 49.73336}}, {"id": 5913313, "name": "Calabogie", "state": "", "country": "CA", "coord": {"lon": -76.716118, "lat": 45.30011}}, {"id": 5913353, "name": "Calder", "state": "", "country": "CA", "coord": {"lon": -101.750931, "lat": 51.14999}}, {"id": 5913417, "name": "Caledon East", "state": "", "country": "CA", "coord": {"lon": -79.866913, "lat": 43.869129}}, {"id": 5913420, "name": "Caledonia", "state": "", "country": "CA", "coord": {"lon": -65.032097, "lat": 44.366859}}, {"id": 5913424, "name": "Caledonia", "state": "", "country": "CA", "coord": {"lon": -79.932938, "lat": 43.066811}}, {"id": 5913449, "name": "Caledon Village", "state": "", "country": "CA", "coord": {"lon": -79.996048, "lat": 43.860149}}, {"id": 5913490, "name": "Calgary", "state": "", "country": "CA", "coord": {"lon": -114.085289, "lat": 51.05011}}, {"id": 5913550, "name": "Callander", "state": "", "country": "CA", "coord": {"lon": -79.366318, "lat": 46.216801}}, {"id": 5913601, "name": "Calmar", "state": "", "country": "CA", "coord": {"lon": -113.818741, "lat": 53.26683}}, {"id": 5913692, "name": "Cambridge", "state": "", "country": "CA", "coord": {"lon": -64.11544, "lat": 45.20015}}, {"id": 5913695, "name": "Cambridge", "state": "", "country": "CA", "coord": {"lon": -80.312691, "lat": 43.3601}}, {"id": 5913698, "name": "Cambridge Bay", "state": "", "country": "CA", "coord": {"lon": -105.05484, "lat": 69.114891}}, {"id": 5913711, "name": "Cambridge Station", "state": "", "country": "CA", "coord": {"lon": -64.632072, "lat": 45.066849}}, {"id": 5913934, "name": "Camlachie", "state": "", "country": "CA", "coord": {"lon": -82.161598, "lat": 43.035961}}, {"id": 5914028, "name": "Campbellcroft", "state": "", "country": "CA", "coord": {"lon": -78.366226, "lat": 44.066818}}, {"id": 5914033, "name": "Campbellford", "state": "", "country": "CA", "coord": {"lon": -77.799492, "lat": 44.308418}}, {"id": 5914132, "name": "Campbell River", "state": "", "country": "CA", "coord": {"lon": -125.244591, "lat": 50.016338}}, {"id": 5914139, "name": "Campbell's Bay", "state": "", "country": "CA", "coord": {"lon": -76.599411, "lat": 45.73341}}, {"id": 5914266, "name": "Camperdown", "state": "", "country": "CA", "coord": {"lon": -64.59877, "lat": 44.266861}}, {"id": 5914276, "name": "Camp Farewell", "state": "", "country": "CA", "coord": {"lon": -134.919418, "lat": 69.28315}}, {"id": 5914653, "name": "Camrose", "state": "", "country": "CA", "coord": {"lon": -112.835251, "lat": 53.016842}}, {"id": 5914778, "name": "Canal Flats", "state": "", "country": "CA", "coord": {"lon": -115.818787, "lat": 50.14994}}, {"id": 5914826, "name": "Candiac", "state": "", "country": "CA", "coord": {"lon": -73.515869, "lat": 45.383381}}, {"id": 5914843, "name": "Cando", "state": "", "country": "CA", "coord": {"lon": -108.234673, "lat": 52.383419}}, {"id": 5914857, "name": "Canfield", "state": "", "country": "CA", "coord": {"lon": -79.749619, "lat": 42.966808}}, {"id": 5914876, "name": "Canim Lake", "state": "", "country": "CA", "coord": {"lon": -120.902634, "lat": 51.766529}}, {"id": 5914894, "name": "Canmore", "state": "", "country": "CA", "coord": {"lon": -115.352058, "lat": 51.083351}}, {"id": 5914938, "name": "Cannington", "state": "", "country": "CA", "coord": {"lon": -79.032883, "lat": 44.350121}}, {"id": 5915050, "name": "Canoe Narrows", "state": "", "country": "CA", "coord": {"lon": -108.151421, "lat": 55.16687}}, {"id": 5915070, "name": "Canoe River", "state": "", "country": "CA", "coord": {"lon": -108.168121, "lat": 55.233471}}, {"id": 5915098, "name": "Canora", "state": "", "country": "CA", "coord": {"lon": -102.43425, "lat": 51.633282}}, {"id": 5915182, "name": "Canwood", "state": "", "country": "CA", "coord": {"lon": -106.601112, "lat": 53.366798}}, {"id": 5915190, "name": "Canyon", "state": "", "country": "CA", "coord": {"lon": -137.058105, "lat": 60.85767}}, {"id": 5915299, "name": "Capasin", "state": "", "country": "CA", "coord": {"lon": -107.384499, "lat": 53.600121}}, {"id": 5915327, "name": "Cap-aux-Meules", "state": "", "country": "CA", "coord": {"lon": -61.85968, "lat": 47.38208}}, {"id": 5915359, "name": "Cap-Chat", "state": "", "country": "CA", "coord": {"lon": -66.682121, "lat": 49.10009}}, {"id": 5915577, "name": "Cape Broyle", "state": "", "country": "CA", "coord": {"lon": -52.942459, "lat": 47.092991}}, {"id": 5915627, "name": "Cape Chin North", "state": "", "country": "CA", "coord": {"lon": -81.319153, "lat": 45.124271}}, {"id": 5915732, "name": "Cape Dorset", "state": "", "country": "CA", "coord": {"lon": -76.543716, "lat": 64.23378}}, {"id": 5916134, "name": "Cape Parry", "state": "", "country": "CA", "coord": {"lon": -124.671829, "lat": 70.15052}}, {"id": 5916449, "name": "Cap La Ronde", "state": "", "country": "CA", "coord": {"lon": -60.89851, "lat": 45.566841}}, {"id": 5916458, "name": "Caplin Cove", "state": "", "country": "CA", "coord": {"lon": -52.98135, "lat": 48.033192}}, {"id": 5916706, "name": "Carberry", "state": "", "country": "CA", "coord": {"lon": -99.360207, "lat": 49.868931}}, {"id": 5916708, "name": "Carberry Junction", "state": "", "country": "CA", "coord": {"lon": -99.354111, "lat": 49.865318}}, {"id": 5916722, "name": "Carbonear", "state": "", "country": "CA", "coord": {"lon": -53.214779, "lat": 47.733189}}, {"id": 5916754, "name": "Carcross", "state": "", "country": "CA", "coord": {"lon": -134.703674, "lat": 60.166088}}, {"id": 5916775, "name": "Cardigan", "state": "", "country": "CA", "coord": {"lon": -62.615349, "lat": 46.23341}}, {"id": 5916786, "name": "Cardinal", "state": "", "country": "CA", "coord": {"lon": -75.382629, "lat": 44.783409}}, {"id": 5916821, "name": "Cardston", "state": "", "country": "CA", "coord": {"lon": -113.301903, "lat": 49.199982}}, {"id": 5916883, "name": "Cargill", "state": "", "country": "CA", "coord": {"lon": -81.249741, "lat": 44.200089}}, {"id": 5916974, "name": "Caribou Ferry", "state": "", "country": "CA", "coord": {"lon": -62.681938, "lat": 45.73344}}, {"id": 5917117, "name": "Carignan", "state": "", "country": "CA", "coord": {"lon": -73.299156, "lat": 45.450081}}, {"id": 5917144, "name": "Carleton", "state": "", "country": "CA", "coord": {"lon": -63.666821, "lat": 46.25703}}, {"id": 5917158, "name": "Carleton Place", "state": "", "country": "CA", "coord": {"lon": -76.149384, "lat": 45.133411}}, {"id": 5917254, "name": "Carlton", "state": "", "country": "CA", "coord": {"lon": -106.501137, "lat": 52.833382}}, {"id": 5917262, "name": "Carlyle", "state": "", "country": "CA", "coord": {"lon": -102.267647, "lat": 49.633339}}, {"id": 5917270, "name": "Carmacks", "state": "", "country": "CA", "coord": {"lon": -136.292953, "lat": 62.088348}}, {"id": 5917275, "name": "Carman", "state": "", "country": "CA", "coord": {"lon": -98.001556, "lat": 49.499199}}, {"id": 5917287, "name": "Carmangay", "state": "", "country": "CA", "coord": {"lon": -113.118584, "lat": 50.133331}}, {"id": 5917294, "name": "Carmanville", "state": "", "country": "CA", "coord": {"lon": -54.2981, "lat": 49.399921}}, {"id": 5917301, "name": "Carmel", "state": "", "country": "CA", "coord": {"lon": -72.3769, "lat": 45.97226}}, {"id": 5917349, "name": "Carnduff", "state": "", "country": "CA", "coord": {"lon": -101.80088, "lat": 49.16674}}, {"id": 5917353, "name": "Carnegie", "state": "", "country": "CA", "coord": {"lon": -100.090881, "lat": 49.97472}}, {"id": 5917390, "name": "Caroline", "state": "", "country": "CA", "coord": {"lon": -114.752052, "lat": 52.083408}}, {"id": 5917430, "name": "Caronport", "state": "", "country": "CA", "coord": {"lon": -105.817871, "lat": 50.450062}}, {"id": 5917434, "name": "Carp", "state": "", "country": "CA", "coord": {"lon": -76.032669, "lat": 45.350101}}, {"id": 5917605, "name": "Carrot River", "state": "", "country": "CA", "coord": {"lon": -103.584229, "lat": 53.283371}}, {"id": 5917622, "name": "Carruthers", "state": "", "country": "CA", "coord": {"lon": -109.268173, "lat": 52.866852}}, {"id": 5917652, "name": "Carseland", "state": "", "country": "CA", "coord": {"lon": -113.468643, "lat": 50.850109}}, {"id": 5917688, "name": "Carstairs", "state": "", "country": "CA", "coord": {"lon": -114.101997, "lat": 51.566811}}, {"id": 5917771, "name": "Cartier", "state": "", "country": "CA", "coord": {"lon": -81.549782, "lat": 46.700081}}, {"id": 5917781, "name": "Cartierville", "state": "", "country": "CA", "coord": {"lon": -73.703583, "lat": 45.531181}}, {"id": 5917796, "name": "Cartwright", "state": "", "country": "CA", "coord": {"lon": -99.340828, "lat": 49.095619}}, {"id": 5917819, "name": "Cartyville", "state": "", "country": "CA", "coord": {"lon": -58.798519, "lat": 48.233311}}, {"id": 5917832, "name": "Carway", "state": "", "country": "CA", "coord": {"lon": -113.385178, "lat": 48.99995}}, {"id": 5917848, "name": "Cascade", "state": "", "country": "CA", "coord": {"lon": -118.202263, "lat": 49.016499}}, {"id": 5918002, "name": "Caslan", "state": "", "country": "CA", "coord": {"lon": -112.518669, "lat": 54.633492}}, {"id": 5918021, "name": "Casselman", "state": "", "country": "CA", "coord": {"lon": -75.082603, "lat": 45.316799}}, {"id": 5918056, "name": "Cassils", "state": "", "country": "CA", "coord": {"lon": -112.035103, "lat": 50.583408}}, {"id": 5918118, "name": "Castlegar", "state": "", "country": "CA", "coord": {"lon": -117.668938, "lat": 49.299839}}, {"id": 5918148, "name": "Castle Mountain", "state": "", "country": "CA", "coord": {"lon": -115.918839, "lat": 51.266701}}, {"id": 5918185, "name": "Castor", "state": "", "country": "CA", "coord": {"lon": -111.885094, "lat": 52.216839}}, {"id": 5918243, "name": "Catalina", "state": "", "country": "CA", "coord": {"lon": -53.081348, "lat": 48.51659}}, {"id": 5918424, "name": "Cat Lake", "state": "", "country": "CA", "coord": {"lon": -91.816978, "lat": 51.72039}}, {"id": 5918580, "name": "Cavendish", "state": "", "country": "CA", "coord": {"lon": -53.481392, "lat": 47.716591}}, {"id": 5918583, "name": "Cavendish", "state": "", "country": "CA", "coord": {"lon": -110.451653, "lat": 50.816818}}, {"id": 5918689, "name": "Cayley", "state": "", "country": "CA", "coord": {"lon": -113.851967, "lat": 50.450089}}, {"id": 5918920, "name": "Cedarvale", "state": "", "country": "CA", "coord": {"lon": -128.332748, "lat": 55.019089}}, {"id": 5919115, "name": "Centralia", "state": "", "country": "CA", "coord": {"lon": -81.466461, "lat": 43.28339}}, {"id": 5919137, "name": "Central Saanich", "state": "", "country": "CA", "coord": {"lon": -123.419319, "lat": 48.566341}}, {"id": 5919258, "name": "Centreville", "state": "", "country": "CA", "coord": {"lon": -66.015572, "lat": 44.550152}}, {"id": 5919263, "name": "Centreville", "state": "", "country": "CA", "coord": {"lon": -81.266441, "lat": 44.950081}}, {"id": 5919289, "name": "Cereal", "state": "", "country": "CA", "coord": {"lon": -110.801689, "lat": 51.416828}}, {"id": 5919305, "name": "Ceylon", "state": "", "country": "CA", "coord": {"lon": -104.601067, "lat": 49.450069}}, {"id": 5919483, "name": "Chalk River", "state": "", "country": "CA", "coord": {"lon": -77.449478, "lat": 46.016819}}, {"id": 5919514, "name": "Chamberlain", "state": "", "country": "CA", "coord": {"lon": -105.567863, "lat": 50.850071}}, {"id": 5919566, "name": "Chambly", "state": "", "country": "CA", "coord": {"lon": -73.282463, "lat": 45.450081}}, {"id": 5919569, "name": "Chambord", "state": "", "country": "CA", "coord": {"lon": -72.065826, "lat": 48.433392}}, {"id": 5919603, "name": "Champcoeur", "state": "", "country": "CA", "coord": {"lon": -77.63279, "lat": 48.683491}}, {"id": 5919666, "name": "Champion", "state": "", "country": "CA", "coord": {"lon": -113.151878, "lat": 50.233349}}, {"id": 5919678, "name": "Champlain", "state": "", "country": "CA", "coord": {"lon": -72.344711, "lat": 46.440701}}, {"id": 5919767, "name": "Change Islands", "state": "", "country": "CA", "coord": {"lon": -54.414829, "lat": 49.666618}}, {"id": 5919815, "name": "Channel-Port aux Basques", "state": "", "country": "CA", "coord": {"lon": -59.136742, "lat": 47.57021}}, {"id": 5919829, "name": "Channing", "state": "", "country": "CA", "coord": {"lon": -101.833267, "lat": 54.753738}}, {"id": 5919850, "name": "Chapais", "state": "", "country": "CA", "coord": {"lon": -74.84919, "lat": 49.78344}}, {"id": 5919860, "name": "Chapel Arm", "state": "", "country": "CA", "coord": {"lon": -53.669331, "lat": 47.516911}}, {"id": 5919915, "name": "Chapleau", "state": "", "country": "CA", "coord": {"lon": -83.403397, "lat": 47.84053}}, {"id": 5919937, "name": "Chaplin", "state": "", "country": "CA", "coord": {"lon": -106.667938, "lat": 50.46677}}, {"id": 5920089, "name": "Charlemagne", "state": "", "country": "CA", "coord": {"lon": -73.482468, "lat": 45.716782}}, {"id": 5920224, "name": "Charlie Lake", "state": "", "country": "CA", "coord": {"lon": -120.952927, "lat": 56.28318}}, {"id": 5920288, "name": "Charlottetown", "state": "", "country": "CA", "coord": {"lon": -63.126709, "lat": 46.235249}}, {"id": 5920381, "name": "Chase", "state": "", "country": "CA", "coord": {"lon": -119.685707, "lat": 50.816502}}, {"id": 5920433, "name": "Ch\u00e2teauguay", "state": "", "country": "CA", "coord": {"lon": -73.749191, "lat": 45.383381}}, {"id": 5920435, "name": "Ch\u00e2teauguay-Centre", "state": "", "country": "CA", "coord": {"lon": -73.749191, "lat": 45.350079}}, {"id": 5920447, "name": "Chatham", "state": "", "country": "CA", "coord": {"lon": -65.432037, "lat": 47.033409}}, {"id": 5920450, "name": "Chatham-Kent", "state": "", "country": "CA", "coord": {"lon": -82.183098, "lat": 42.400089}}, {"id": 5920470, "name": "Chatsworth", "state": "", "country": "CA", "coord": {"lon": -80.899727, "lat": 44.450089}}, {"id": 5920507, "name": "Chauvin", "state": "", "country": "CA", "coord": {"lon": -110.118263, "lat": 52.70015}}, {"id": 5920641, "name": "Chelan", "state": "", "country": "CA", "coord": {"lon": -103.384262, "lat": 52.616699}}, {"id": 5920648, "name": "Chelmsford", "state": "", "country": "CA", "coord": {"lon": -81.19976, "lat": 46.583382}}, {"id": 5920668, "name": "Chemainus", "state": "", "country": "CA", "coord": {"lon": -123.719368, "lat": 48.916328}}, {"id": 5920888, "name": "Cherhill", "state": "", "country": "CA", "coord": {"lon": -114.685417, "lat": 53.816841}}, {"id": 5920973, "name": "Cherry Point", "state": "", "country": "CA", "coord": {"lon": -119.952873, "lat": 56.183208}}, {"id": 5920985, "name": "Cherry Valley", "state": "", "country": "CA", "coord": {"lon": -62.915371, "lat": 46.166809}}, {"id": 5920990, "name": "Cherryville", "state": "", "country": "CA", "coord": {"lon": -118.619011, "lat": 50.24152}}, {"id": 5921028, "name": "Chester", "state": "", "country": "CA", "coord": {"lon": -64.248741, "lat": 44.550152}}, {"id": 5921048, "name": "Chesterfield Inlet", "state": "", "country": "CA", "coord": {"lon": -90.701187, "lat": 63.33955}}, {"id": 5921060, "name": "Chestermere", "state": "", "country": "CA", "coord": {"lon": -113.818672, "lat": 51.033409}}, {"id": 5921064, "name": "Chesterville", "state": "", "country": "CA", "coord": {"lon": -71.815804, "lat": 45.96677}}, {"id": 5921066, "name": "Chesterville", "state": "", "country": "CA", "coord": {"lon": -75.23262, "lat": 45.100101}}, {"id": 5921091, "name": "Chetwynd", "state": "", "country": "CA", "coord": {"lon": -121.636269, "lat": 55.699879}}, {"id": 5921147, "name": "Chibougamau", "state": "", "country": "CA", "coord": {"lon": -74.36586, "lat": 49.91684}}, {"id": 5921356, "name": "Chilliwack", "state": "", "country": "CA", "coord": {"lon": -121.952568, "lat": 49.166382}}, {"id": 5921357, "name": "Chilliwack", "state": "", "country": "CA", "coord": {"lon": -121.944267, "lat": 49.174679}}, {"id": 5921525, "name": "Chip Lake", "state": "", "country": "CA", "coord": {"lon": -115.435471, "lat": 53.61684}}, {"id": 5921527, "name": "Chipman", "state": "", "country": "CA", "coord": {"lon": -65.883858, "lat": 46.169338}}, {"id": 5921530, "name": "Chipman", "state": "", "country": "CA", "coord": {"lon": -112.635231, "lat": 53.70015}}, {"id": 5921589, "name": "Chisasibi", "state": "", "country": "CA", "coord": {"lon": -78.332893, "lat": 53.66695}}, {"id": 5921607, "name": "Chisholm", "state": "", "country": "CA", "coord": {"lon": -114.168861, "lat": 54.916851}}, {"id": 5921642, "name": "Chisholm's Mills", "state": "", "country": "CA", "coord": {"lon": -77.309464, "lat": 44.353722}}, {"id": 5921656, "name": "Chitek", "state": "", "country": "CA", "coord": {"lon": -107.751259, "lat": 53.800152}}, {"id": 5921795, "name": "Christian Island", "state": "", "country": "CA", "coord": {"lon": -80.182991, "lat": 44.816799}}, {"id": 5922107, "name": "Churchill", "state": "", "country": "CA", "coord": {"lon": -79.582932, "lat": 44.250111}}, {"id": 5922111, "name": "Churchill", "state": "", "country": "CA", "coord": {"lon": -94.116821, "lat": 58.72541}}, {"id": 5922169, "name": "Church Point", "state": "", "country": "CA", "coord": {"lon": -66.11557, "lat": 44.33345}}, {"id": 5922281, "name": "Chute-aux-Outardes", "state": "", "country": "CA", "coord": {"lon": -68.398956, "lat": 49.116791}}, {"id": 5922650, "name": "Cinema", "state": "", "country": "CA", "coord": {"lon": -122.452919, "lat": 53.2332}}, {"id": 5922850, "name": "City Centre", "state": "", "country": "CA", "coord": {"lon": -97.164551, "lat": 49.876099}}, {"id": 5922883, "name": "Clair", "state": "", "country": "CA", "coord": {"lon": -104.084343, "lat": 52.016708}}, {"id": 5922904, "name": "Clairmont", "state": "", "country": "CA", "coord": {"lon": -118.786011, "lat": 55.266682}}, {"id": 5923101, "name": "Clarence-Rockland", "state": "", "country": "CA", "coord": {"lon": -75.291008, "lat": 45.550098}}, {"id": 5923118, "name": "Clarenville", "state": "", "country": "CA", "coord": {"lon": -53.964821, "lat": 48.166599}}, {"id": 5923119, "name": "Clarenville-Shoal Harbour", "state": "", "country": "CA", "coord": {"lon": -53.969818, "lat": 48.1805}}, {"id": 5923125, "name": "Claresholm", "state": "", "country": "CA", "coord": {"lon": -113.585243, "lat": 50.033321}}, {"id": 5923168, "name": "Clarke City", "state": "", "country": "CA", "coord": {"lon": -66.63205, "lat": 50.191799}}, {"id": 5923329, "name": "Clarkson", "state": "", "country": "CA", "coord": {"lon": -79.633537, "lat": 43.51852}}, {"id": 5923562, "name": "Clear Creek", "state": "", "country": "CA", "coord": {"lon": -137.287506, "lat": 63.78286}}, {"id": 5923566, "name": "Cleardale", "state": "", "country": "CA", "coord": {"lon": -119.586189, "lat": 56.333241}}, {"id": 5923667, "name": "Clearwater", "state": "", "country": "CA", "coord": {"lon": -120.027687, "lat": 51.64061}}, {"id": 5923871, "name": "Cl\u00e9ricy", "state": "", "country": "CA", "coord": {"lon": -78.864899, "lat": 48.365479}}, {"id": 5924007, "name": "Climax", "state": "", "country": "CA", "coord": {"lon": -108.384682, "lat": 49.200031}}, {"id": 5924039, "name": "Clinton", "state": "", "country": "CA", "coord": {"lon": -81.533073, "lat": 43.616791}}, {"id": 5924041, "name": "Clinton", "state": "", "country": "CA", "coord": {"lon": -121.585968, "lat": 51.083092}}, {"id": 5924075, "name": "Clive", "state": "", "country": "CA", "coord": {"lon": -113.451981, "lat": 52.46682}}, {"id": 5924109, "name": "Cloridorme", "state": "", "country": "CA", "coord": {"lon": -64.91539, "lat": 49.166801}}, {"id": 5924200, "name": "Cloverdale", "state": "", "country": "CA", "coord": {"lon": -63.21537, "lat": 45.183449}}, {"id": 5924204, "name": "Cloverdale", "state": "", "country": "CA", "coord": {"lon": -122.7276, "lat": 49.107971}}, {"id": 5924223, "name": "Clover Valley", "state": "", "country": "CA", "coord": {"lon": -81.814796, "lat": 45.712872}}, {"id": 5924351, "name": "Clyde River", "state": "", "country": "CA", "coord": {"lon": -68.591431, "lat": 70.469162}}, {"id": 5924417, "name": "Coaldale", "state": "", "country": "CA", "coord": {"lon": -112.618538, "lat": 49.716702}}, {"id": 5924428, "name": "Coalhurst", "state": "", "country": "CA", "coord": {"lon": -112.932457, "lat": 49.746399}}, {"id": 5924500, "name": "Coaticook", "state": "", "country": "CA", "coord": {"lon": -71.799072, "lat": 45.133389}}, {"id": 5924511, "name": "Cobalt", "state": "", "country": "CA", "coord": {"lon": -79.682983, "lat": 47.400162}}, {"id": 5924534, "name": "Cobble Hill", "state": "", "country": "CA", "coord": {"lon": -123.602638, "lat": 48.68293}}, {"id": 5924565, "name": "Cobden", "state": "", "country": "CA", "coord": {"lon": -76.882729, "lat": 45.633411}}, {"id": 5924578, "name": "Coboconk", "state": "", "country": "CA", "coord": {"lon": -78.799583, "lat": 44.65012}}, {"id": 5924579, "name": "Cobourg", "state": "", "country": "CA", "coord": {"lon": -78.165154, "lat": 43.95977}}, {"id": 5924614, "name": "Cochrane", "state": "", "country": "CA", "coord": {"lon": -81.033073, "lat": 49.066891}}, {"id": 5924618, "name": "Cochrane", "state": "", "country": "CA", "coord": {"lon": -114.468712, "lat": 51.183411}}, {"id": 5924756, "name": "Coderre", "state": "", "country": "CA", "coord": {"lon": -106.384506, "lat": 50.133362}}, {"id": 5924757, "name": "Codesa", "state": "", "country": "CA", "coord": {"lon": -118.069412, "lat": 55.76675}}, {"id": 5924760, "name": "Codette", "state": "", "country": "CA", "coord": {"lon": -104.034233, "lat": 53.283371}}, {"id": 5924787, "name": "Codroy", "state": "", "country": "CA", "coord": {"lon": -59.364971, "lat": 47.864079}}, {"id": 5924814, "name": "Codys", "state": "", "country": "CA", "coord": {"lon": -65.815552, "lat": 45.88345}}, {"id": 5924817, "name": "Coe Hill", "state": "", "country": "CA", "coord": {"lon": -77.832802, "lat": 44.866829}}, {"id": 5924963, "name": "Colborne", "state": "", "country": "CA", "coord": {"lon": -77.882797, "lat": 44.000118}}, {"id": 5925024, "name": "Cold Lake", "state": "", "country": "CA", "coord": {"lon": -110.201698, "lat": 54.45018}}, {"id": 5925058, "name": "Coldstream", "state": "", "country": "CA", "coord": {"lon": -119.202347, "lat": 50.216492}}, {"id": 5925102, "name": "Cole Bay", "state": "", "country": "CA", "coord": {"lon": -108.33474, "lat": 55.09457}}, {"id": 5925150, "name": "Coleman", "state": "", "country": "CA", "coord": {"lon": -64.165443, "lat": 46.683449}}, {"id": 5925154, "name": "Coleman", "state": "", "country": "CA", "coord": {"lon": -114.501999, "lat": 49.63332}}, {"id": 5925240, "name": "Coleville", "state": "", "country": "CA", "coord": {"lon": -109.251503, "lat": 51.71682}}, {"id": 5925975, "name": "Collingwood", "state": "", "country": "CA", "coord": {"lon": -80.216377, "lat": 44.483398}}, {"id": 5926129, "name": "Colonsay", "state": "", "country": "CA", "coord": {"lon": -105.884483, "lat": 51.983372}}, {"id": 5926155, "name": "Colpton", "state": "", "country": "CA", "coord": {"lon": -64.848778, "lat": 44.45015}}, {"id": 5926246, "name": "Colville Lake", "state": "", "country": "CA", "coord": {"lon": -126.120811, "lat": 67.033562}}, {"id": 5926255, "name": "Colwell", "state": "", "country": "CA", "coord": {"lon": -79.782951, "lat": 44.333408}}, {"id": 5926268, "name": "Colwood", "state": "", "country": "CA", "coord": {"lon": -123.485909, "lat": 48.43293}}, {"id": 5926281, "name": "Comber", "state": "", "country": "CA", "coord": {"lon": -82.54982, "lat": 42.233379}}, {"id": 5926284, "name": "Combermere", "state": "", "country": "CA", "coord": {"lon": -77.616188, "lat": 45.366821}}, {"id": 5926314, "name": "Come By Chance", "state": "", "country": "CA", "coord": {"lon": -53.98143, "lat": 47.849899}}, {"id": 5926350, "name": "Commanda", "state": "", "country": "CA", "coord": {"lon": -79.599632, "lat": 45.9501}}, {"id": 5926420, "name": "Como", "state": "", "country": "CA", "coord": {"lon": -74.115921, "lat": 45.450081}}, {"id": 5926432, "name": "Comox", "state": "", "country": "CA", "coord": {"lon": -124.936127, "lat": 49.682941}}, {"id": 5926458, "name": "Compeer", "state": "", "country": "CA", "coord": {"lon": -110.001579, "lat": 51.866829}}, {"id": 5926511, "name": "Conception Bay South", "state": "", "country": "CA", "coord": {"lon": -52.998058, "lat": 47.499889}}, {"id": 5926512, "name": "Conception Harbour", "state": "", "country": "CA", "coord": {"lon": -53.218079, "lat": 47.442692}}, {"id": 5926519, "name": "Conche", "state": "", "country": "CA", "coord": {"lon": -55.898079, "lat": 50.883381}}, {"id": 5926526, "name": "Concord", "state": "", "country": "CA", "coord": {"lon": -79.48291, "lat": 43.80011}}, {"id": 5926705, "name": "Coniston", "state": "", "country": "CA", "coord": {"lon": -80.849731, "lat": 46.483379}}, {"id": 5926755, "name": "Connaught", "state": "", "country": "CA", "coord": {"lon": -80.93309, "lat": 48.616871}}, {"id": 5926901, "name": "Conquest", "state": "", "country": "CA", "coord": {"lon": -107.234589, "lat": 51.533379}}, {"id": 5926902, "name": "Conrad", "state": "", "country": "CA", "coord": {"lon": -111.968468, "lat": 49.516731}}, {"id": 5926958, "name": "Consort", "state": "", "country": "CA", "coord": {"lon": -110.768356, "lat": 52.01683}}, {"id": 5927024, "name": "Contrecoeur", "state": "", "country": "CA", "coord": {"lon": -73.232452, "lat": 45.850079}}, {"id": 5927235, "name": "Cookshire-Eaton", "state": "", "country": "CA", "coord": {"lon": -71.632401, "lat": 45.416752}}, {"id": 5927537, "name": "Coppell", "state": "", "country": "CA", "coord": {"lon": -83.833153, "lat": 49.533508}}, {"id": 5927547, "name": "Copper Cliff", "state": "", "country": "CA", "coord": {"lon": -81.066437, "lat": 46.466782}}, {"id": 5927632, "name": "Copper Mountain", "state": "", "country": "CA", "coord": {"lon": -120.541367, "lat": 49.324718}}, {"id": 5927689, "name": "Coquitlam", "state": "", "country": "CA", "coord": {"lon": -122.752617, "lat": 49.28297}}, {"id": 5927708, "name": "Coral Harbour", "state": "", "country": "CA", "coord": {"lon": -83.166153, "lat": 64.134064}}, {"id": 5927764, "name": "Corbin", "state": "", "country": "CA", "coord": {"lon": -114.652, "lat": 49.516708}}, {"id": 5927788, "name": "Corbyville", "state": "", "country": "CA", "coord": {"lon": -77.382767, "lat": 44.21682}}, {"id": 5927900, "name": "Cormack", "state": "", "country": "CA", "coord": {"lon": -57.381618, "lat": 49.300011}}, {"id": 5927928, "name": "Cormorant", "state": "", "country": "CA", "coord": {"lon": -100.601097, "lat": 54.223991}}, {"id": 5927969, "name": "Corner Brook", "state": "", "country": "CA", "coord": {"lon": -57.948399, "lat": 48.966709}}, {"id": 5928063, "name": "Cornwall", "state": "", "country": "CA", "coord": {"lon": -63.21809, "lat": 46.226521}}, {"id": 5928065, "name": "Cornwall", "state": "", "country": "CA", "coord": {"lon": -74.728149, "lat": 45.018089}}, {"id": 5928098, "name": "Coronach", "state": "", "country": "CA", "coord": {"lon": -105.517807, "lat": 49.11676}}, {"id": 5928107, "name": "Coronation", "state": "", "country": "CA", "coord": {"lon": -111.451736, "lat": 52.083431}}, {"id": 5928337, "name": "Coteau-du-Lac", "state": "", "country": "CA", "coord": {"lon": -74.182533, "lat": 45.300079}}, {"id": 5928473, "name": "C\u00f4te-Nord", "state": "", "country": "CA", "coord": {"lon": -65.815407, "lat": 50.866829}}, {"id": 5928488, "name": "C\u00f4te-Saint-Luc", "state": "", "country": "CA", "coord": {"lon": -73.665848, "lat": 45.465359}}, {"id": 5928517, "name": "Cottam", "state": "", "country": "CA", "coord": {"lon": -82.749817, "lat": 42.133389}}, {"id": 5928552, "name": "Cottlesville", "state": "", "country": "CA", "coord": {"lon": -54.848148, "lat": 49.49992}}, {"id": 5928572, "name": "Cottonwood", "state": "", "country": "CA", "coord": {"lon": -122.169571, "lat": 53.049889}}, {"id": 5928856, "name": "Coulter", "state": "", "country": "CA", "coord": {"lon": -100.986168, "lat": 49.090832}}, {"id": 5930890, "name": "Courtenay", "state": "", "country": "CA", "coord": {"lon": -124.993599, "lat": 49.686569}}, {"id": 5930917, "name": "Courtright", "state": "", "country": "CA", "coord": {"lon": -82.46653, "lat": 42.81678}}, {"id": 5930953, "name": "Coutts", "state": "", "country": "CA", "coord": {"lon": -111.963043, "lat": 49.00201}}, {"id": 5931020, "name": "Covered Bridge", "state": "", "country": "CA", "coord": {"lon": -66.615562, "lat": 46.233398}}, {"id": 5931074, "name": "Cowansville", "state": "", "country": "CA", "coord": {"lon": -72.74913, "lat": 45.200081}}, {"id": 5931201, "name": "Cowley", "state": "", "country": "CA", "coord": {"lon": -114.085251, "lat": 49.5667}}, {"id": 5931287, "name": "Coxheath", "state": "", "country": "CA", "coord": {"lon": -60.23175, "lat": 46.11684}}, {"id": 5931346, "name": "Coyle", "state": "", "country": "CA", "coord": {"lon": -120.885811, "lat": 50.14975}}, {"id": 5931427, "name": "Crabtree", "state": "", "country": "CA", "coord": {"lon": -73.465858, "lat": 45.96677}}, {"id": 5931508, "name": "Craigend", "state": "", "country": "CA", "coord": {"lon": -111.935204, "lat": 54.583488}}, {"id": 5931545, "name": "Craigmyle", "state": "", "country": "CA", "coord": {"lon": -112.251831, "lat": 51.666828}}, {"id": 5931789, "name": "Cranberry Portage", "state": "", "country": "CA", "coord": {"lon": -101.377968, "lat": 54.586231}}, {"id": 5931800, "name": "Cranbrook", "state": "", "country": "CA", "coord": {"lon": -115.768791, "lat": 49.499908}}, {"id": 5931973, "name": "Crawford Bay", "state": "", "country": "CA", "coord": {"lon": -116.823807, "lat": 49.67207}}, {"id": 5932098, "name": "Crediton", "state": "", "country": "CA", "coord": {"lon": -81.549767, "lat": 43.28339}}, {"id": 5932143, "name": "Creemore", "state": "", "country": "CA", "coord": {"lon": -80.107498, "lat": 44.327042}}, {"id": 5932187, "name": "Cremona", "state": "", "country": "CA", "coord": {"lon": -114.485313, "lat": 51.550098}}, {"id": 5932283, "name": "Crescent Valley", "state": "", "country": "CA", "coord": {"lon": -117.552238, "lat": 49.449841}}, {"id": 5932311, "name": "Creston", "state": "", "country": "CA", "coord": {"lon": -116.502113, "lat": 49.099869}}, {"id": 5932675, "name": "Criss Creek", "state": "", "country": "CA", "coord": {"lon": -120.73584, "lat": 51.049801}}, {"id": 5932743, "name": "Crofton", "state": "", "country": "CA", "coord": {"lon": -123.652657, "lat": 48.866329}}, {"id": 5932784, "name": "Cromer", "state": "", "country": "CA", "coord": {"lon": -101.235931, "lat": 49.7314}}, {"id": 5932957, "name": "Crooked River", "state": "", "country": "CA", "coord": {"lon": -103.734253, "lat": 52.850021}}, {"id": 5932966, "name": "Crooked Turn", "state": "", "country": "CA", "coord": {"lon": -97.857002, "lat": 53.950649}}, {"id": 5933003, "name": "Crosby", "state": "", "country": "CA", "coord": {"lon": -76.26609, "lat": 44.65012}}, {"id": 5933070, "name": "Crossfield", "state": "", "country": "CA", "coord": {"lon": -114.035278, "lat": 51.433411}}, {"id": 5933127, "name": "Cross Lake", "state": "", "country": "CA", "coord": {"lon": -97.779449, "lat": 54.625938}}, {"id": 5933196, "name": "Crossroads", "state": "", "country": "CA", "coord": {"lon": -53.36338, "lat": 47.866589}}, {"id": 5933512, "name": "Crozier", "state": "", "country": "CA", "coord": {"lon": -93.517014, "lat": 48.616581}}, {"id": 5933629, "name": "Crystal City", "state": "", "country": "CA", "coord": {"lon": -98.949707, "lat": 49.146412}}, {"id": 5933765, "name": "Cudworth", "state": "", "country": "CA", "coord": {"lon": -105.734421, "lat": 52.500061}}, {"id": 5933885, "name": "Cumberland", "state": "", "country": "CA", "coord": {"lon": -125.036133, "lat": 49.616341}}, {"id": 5933890, "name": "Cumberland Bay", "state": "", "country": "CA", "coord": {"lon": -65.865562, "lat": 46.03344}}, {"id": 5933900, "name": "Cumberland House", "state": "", "country": "CA", "coord": {"lon": -102.26757, "lat": 53.966789}}, {"id": 5934031, "name": "Cupar", "state": "", "country": "CA", "coord": {"lon": -104.217781, "lat": 50.950081}}, {"id": 5934305, "name": "Cut Knife", "state": "", "country": "CA", "coord": {"lon": -109.018143, "lat": 52.750149}}, {"id": 5934438, "name": "Cypress River", "state": "", "country": "CA", "coord": {"lon": -99.087502, "lat": 49.55582}}, {"id": 5934463, "name": "Czar", "state": "", "country": "CA", "coord": {"lon": -110.834938, "lat": 52.45013}}, {"id": 5934486, "name": "Dacre", "state": "", "country": "CA", "coord": {"lon": -76.966141, "lat": 45.36681}}, {"id": 5934507, "name": "Dafoe", "state": "", "country": "CA", "coord": {"lon": -104.534393, "lat": 51.75005}}, {"id": 5934673, "name": "Dalhousie Road", "state": "", "country": "CA", "coord": {"lon": -64.698769, "lat": 44.733452}}, {"id": 5934709, "name": "Dalmeny", "state": "", "country": "CA", "coord": {"lon": -106.767921, "lat": 52.333389}}, {"id": 5934896, "name": "Dane", "state": "", "country": "CA", "coord": {"lon": -80.016411, "lat": 48.083469}}, {"id": 5934957, "name": "Daniel's Harbour", "state": "", "country": "CA", "coord": {"lon": -57.581558, "lat": 50.23333}}, {"id": 5935042, "name": "Danville", "state": "", "country": "CA", "coord": {"lon": -72.0158, "lat": 45.783371}}, {"id": 5935060, "name": "Dapp", "state": "", "country": "CA", "coord": {"lon": -113.918793, "lat": 54.350151}}, {"id": 5935258, "name": "Darrell Bay", "state": "", "country": "CA", "coord": {"lon": -123.169373, "lat": 49.66637}}, {"id": 5935277, "name": "Dartmouth", "state": "", "country": "CA", "coord": {"lon": -63.57719, "lat": 44.671341}}, {"id": 5935341, "name": "Dauphin", "state": "", "country": "CA", "coord": {"lon": -100.050232, "lat": 51.14941}}, {"id": 5935388, "name": "Daveluyville", "state": "", "country": "CA", "coord": {"lon": -72.132393, "lat": 46.200062}}, {"id": 5935486, "name": "Davidson", "state": "", "country": "CA", "coord": {"lon": -105.984489, "lat": 51.266762}}, {"id": 5935804, "name": "Dawson Creek", "state": "", "country": "CA", "coord": {"lon": -120.23616, "lat": 55.766602}}, {"id": 5935913, "name": "Daysland", "state": "", "country": "CA", "coord": {"lon": -112.251839, "lat": 52.86684}}, {"id": 5936199, "name": "Deadwood", "state": "", "country": "CA", "coord": {"lon": -117.452728, "lat": 56.733421}}, {"id": 5936286, "name": "Dease Lake", "state": "", "country": "CA", "coord": {"lon": -129.987488, "lat": 58.435692}}, {"id": 5936333, "name": "Debden", "state": "", "country": "CA", "coord": {"lon": -106.884438, "lat": 53.5168}}, {"id": 5936339, "name": "Debert", "state": "", "country": "CA", "coord": {"lon": -63.465389, "lat": 45.433449}}, {"id": 5937073, "name": "Deep River", "state": "", "country": "CA", "coord": {"lon": -77.499489, "lat": 46.100121}}, {"id": 5937252, "name": "Deer Lake", "state": "", "country": "CA", "coord": {"lon": -57.431629, "lat": 49.16671}}, {"id": 5937277, "name": "Deer Lake", "state": "", "country": "CA", "coord": {"lon": -94.083717, "lat": 52.616798}}, {"id": 5937504, "name": "Delburne", "state": "", "country": "CA", "coord": {"lon": -113.235229, "lat": 52.200119}}, {"id": 5937522, "name": "Delhi", "state": "", "country": "CA", "coord": {"lon": -80.49968, "lat": 42.850101}}, {"id": 5937538, "name": "Delisle", "state": "", "country": "CA", "coord": {"lon": -107.134583, "lat": 51.916779}}, {"id": 5937577, "name": "Deloraine", "state": "", "country": "CA", "coord": {"lon": -100.494766, "lat": 49.190819}}, {"id": 5937612, "name": "Delson", "state": "", "country": "CA", "coord": {"lon": -73.549171, "lat": 45.366779}}, {"id": 5937615, "name": "Delta", "state": "", "country": "CA", "coord": {"lon": -122.906799, "lat": 49.14399}}, {"id": 5937701, "name": "Demmitt", "state": "", "country": "CA", "coord": {"lon": -119.902809, "lat": 55.449909}}, {"id": 5937747, "name": "Denare Beach", "state": "", "country": "CA", "coord": {"lon": -102.084084, "lat": 54.666828}}, {"id": 5937753, "name": "Denbigh", "state": "", "country": "CA", "coord": {"lon": -77.249458, "lat": 45.133419}}, {"id": 5937775, "name": "Denfield", "state": "", "country": "CA", "coord": {"lon": -81.43306, "lat": 43.116791}}, {"id": 5937786, "name": "Denholm", "state": "", "country": "CA", "coord": {"lon": -108.018028, "lat": 52.650131}}, {"id": 5937943, "name": "Denzil", "state": "", "country": "CA", "coord": {"lon": -109.65152, "lat": 52.23344}}, {"id": 5938137, "name": "Desbarats", "state": "", "country": "CA", "coord": {"lon": -83.933228, "lat": 46.333359}}, {"id": 5938157, "name": "Deschaillons-sur-Saint-Laurent", "state": "", "country": "CA", "coord": {"lon": -72.115799, "lat": 46.550049}}, {"id": 5938187, "name": "Deseronto", "state": "", "country": "CA", "coord": {"lon": -77.049438, "lat": 44.200119}}, {"id": 5938513, "name": "Deux-Montagnes", "state": "", "country": "CA", "coord": {"lon": -73.90168, "lat": 45.53455}}, {"id": 5938768, "name": "Devine", "state": "", "country": "CA", "coord": {"lon": -122.485977, "lat": 50.51643}}, {"id": 5938797, "name": "Devon", "state": "", "country": "CA", "coord": {"lon": -63.398682, "lat": 44.916851}}, {"id": 5938801, "name": "Devon", "state": "", "country": "CA", "coord": {"lon": -113.735329, "lat": 53.366829}}, {"id": 5938928, "name": "Dezadeash", "state": "", "country": "CA", "coord": {"lon": -137.059448, "lat": 60.371552}}, {"id": 5939210, "name": "Didsbury", "state": "", "country": "CA", "coord": {"lon": -114.135292, "lat": 51.666809}}, {"id": 5939211, "name": "Didyme", "state": "", "country": "CA", "coord": {"lon": -72.665627, "lat": 48.900028}}, {"id": 5939219, "name": "Dieppe", "state": "", "country": "CA", "coord": {"lon": -64.687347, "lat": 46.078442}}, {"id": 5939236, "name": "Digby", "state": "", "country": "CA", "coord": {"lon": -65.765549, "lat": 44.616852}}, {"id": 5939341, "name": "Dildo", "state": "", "country": "CA", "coord": {"lon": -53.5481, "lat": 47.566589}}, {"id": 5939355, "name": "Dilke", "state": "", "country": "CA", "coord": {"lon": -105.251137, "lat": 50.866779}}, {"id": 5939382, "name": "Dillon", "state": "", "country": "CA", "coord": {"lon": -108.934776, "lat": 55.933479}}, {"id": 5939424, "name": "Dina", "state": "", "country": "CA", "coord": {"lon": -110.084862, "lat": 52.93346}}, {"id": 5939449, "name": "Dingwall", "state": "", "country": "CA", "coord": {"lon": -60.46516, "lat": 46.900139}}, {"id": 5939498, "name": "Dinorwic", "state": "", "country": "CA", "coord": {"lon": -92.500298, "lat": 49.683338}}, {"id": 5939508, "name": "Dinsmore", "state": "", "country": "CA", "coord": {"lon": -107.434608, "lat": 51.333389}}, {"id": 5939598, "name": "Discovery", "state": "", "country": "CA", "coord": {"lon": -113.902527, "lat": 63.18375}}, {"id": 5939663, "name": "Disraeli", "state": "", "country": "CA", "coord": {"lon": -71.349068, "lat": 45.90007}}, {"id": 5940363, "name": "Dixonville", "state": "", "country": "CA", "coord": {"lon": -117.669434, "lat": 56.533401}}, {"id": 5940570, "name": "Dodds", "state": "", "country": "CA", "coord": {"lon": -112.551903, "lat": 53.216839}}, {"id": 5940611, "name": "Dodsland", "state": "", "country": "CA", "coord": {"lon": -108.818153, "lat": 51.80011}}, {"id": 5940639, "name": "Doe River", "state": "", "country": "CA", "coord": {"lon": -120.086159, "lat": 55.999908}}, {"id": 5940681, "name": "Dog Creek", "state": "", "country": "CA", "coord": {"lon": -122.236053, "lat": 51.583099}}, {"id": 5940837, "name": "Dogpound", "state": "", "country": "CA", "coord": {"lon": -114.402008, "lat": 51.466801}}, {"id": 5940934, "name": "Dolbeau-Mistassini", "state": "", "country": "CA", "coord": {"lon": -72.212021, "lat": 48.876339}}, {"id": 5940956, "name": "Dollard-Des Ormeaux", "state": "", "country": "CA", "coord": {"lon": -73.824188, "lat": 45.494518}}, {"id": 5941034, "name": "Domain", "state": "", "country": "CA", "coord": {"lon": -97.32206, "lat": 49.614201}}, {"id": 5941414, "name": "Dominion", "state": "", "country": "CA", "coord": {"lon": -60.015148, "lat": 46.216839}}, {"id": 5941418, "name": "Dominion City", "state": "", "country": "CA", "coord": {"lon": -97.156258, "lat": 49.141891}}, {"id": 5941452, "name": "Domremy", "state": "", "country": "CA", "coord": {"lon": -105.734383, "lat": 52.783371}}, {"id": 5941474, "name": "Donalda", "state": "", "country": "CA", "coord": {"lon": -112.568611, "lat": 52.583431}}, {"id": 5941547, "name": "Donatville", "state": "", "country": "CA", "coord": {"lon": -112.80201, "lat": 54.750191}}, {"id": 5941588, "name": "Donkin", "state": "", "country": "CA", "coord": {"lon": -59.865139, "lat": 46.183441}}, {"id": 5941602, "name": "Don Mills", "state": "", "country": "CA", "coord": {"lon": -79.332901, "lat": 43.73341}}, {"id": 5941611, "name": "Donnelly", "state": "", "country": "CA", "coord": {"lon": -117.109512, "lat": 55.72929}}, {"id": 5941780, "name": "Dore Lake", "state": "", "country": "CA", "coord": {"lon": -107.401314, "lat": 54.633469}}, {"id": 5941811, "name": "Dorintosh", "state": "", "country": "CA", "coord": {"lon": -108.634758, "lat": 54.36689}}, {"id": 5941855, "name": "Dorothy", "state": "", "country": "CA", "coord": {"lon": -112.318542, "lat": 51.300121}}, {"id": 5941902, "name": "Dorset", "state": "", "country": "CA", "coord": {"lon": -78.899597, "lat": 45.23341}}, {"id": 5941925, "name": "Dorval", "state": "", "country": "CA", "coord": {"lon": -73.753349, "lat": 45.4473}}, {"id": 5942213, "name": "Douro", "state": "", "country": "CA", "coord": {"lon": -78.199532, "lat": 44.383419}}, {"id": 5942354, "name": "Downsview", "state": "", "country": "CA", "coord": {"lon": -79.48291, "lat": 43.716808}}, {"id": 5942519, "name": "Draper", "state": "", "country": "CA", "coord": {"lon": -111.251869, "lat": 56.666901}}, {"id": 5942547, "name": "Drayton Valley", "state": "", "country": "CA", "coord": {"lon": -114.985443, "lat": 53.21682}}, {"id": 5942576, "name": "Dresden", "state": "", "country": "CA", "coord": {"lon": -82.183098, "lat": 42.583382}}, {"id": 5942626, "name": "Driftpile", "state": "", "country": "CA", "coord": {"lon": -115.769096, "lat": 55.333408}}, {"id": 5942636, "name": "Driftwood", "state": "", "country": "CA", "coord": {"lon": -81.383072, "lat": 49.133492}}, {"id": 5942688, "name": "Drinkwater", "state": "", "country": "CA", "coord": {"lon": -105.134422, "lat": 50.300072}}, {"id": 5942791, "name": "Drumbo", "state": "", "country": "CA", "coord": {"lon": -80.54969, "lat": 43.233391}}, {"id": 5942798, "name": "Drumheller", "state": "", "country": "CA", "coord": {"lon": -112.710114, "lat": 51.461712}}, {"id": 5942845, "name": "Drummondville", "state": "", "country": "CA", "coord": {"lon": -72.482407, "lat": 45.883362}}, {"id": 5942911, "name": "Dryden", "state": "", "country": "CA", "coord": {"lon": -92.833633, "lat": 49.77504}}, {"id": 5942913, "name": "Dryden", "state": "", "country": "CA", "coord": {"lon": -92.75032, "lat": 49.78334}}, {"id": 5942919, "name": "Dryden's Corner", "state": "", "country": "CA", "coord": {"lon": -82.266533, "lat": 45.71677}}, {"id": 5943101, "name": "Duchess", "state": "", "country": "CA", "coord": {"lon": -111.918503, "lat": 50.71682}}, {"id": 5943309, "name": "Duck Lake", "state": "", "country": "CA", "coord": {"lon": -106.234421, "lat": 52.81678}}, {"id": 5943623, "name": "Dufresne", "state": "", "country": "CA", "coord": {"lon": -96.723907, "lat": 49.726891}}, {"id": 5943628, "name": "Dufrost", "state": "", "country": "CA", "coord": {"lon": -97.052338, "lat": 49.358292}}, {"id": 5943853, "name": "Dunblane", "state": "", "country": "CA", "coord": {"lon": -106.867973, "lat": 51.183369}}, {"id": 5943865, "name": "Duncan", "state": "", "country": "CA", "coord": {"lon": -123.70266, "lat": 48.782928}}, {"id": 5943968, "name": "Dundalk", "state": "", "country": "CA", "coord": {"lon": -80.39357, "lat": 44.167919}}, {"id": 5944013, "name": "Dundurn", "state": "", "country": "CA", "coord": {"lon": -106.501228, "lat": 51.81678}}, {"id": 5944051, "name": "Dunfermline", "state": "", "country": "CA", "coord": {"lon": -107.034554, "lat": 52.133389}}, {"id": 5944222, "name": "Dunnville", "state": "", "country": "CA", "coord": {"lon": -79.61631, "lat": 42.900108}}, {"id": 5944253, "name": "Dunsford", "state": "", "country": "CA", "coord": {"lon": -78.649559, "lat": 44.450119}}, {"id": 5944276, "name": "Dunster", "state": "", "country": "CA", "coord": {"lon": -119.83593, "lat": 53.116699}}, {"id": 5944299, "name": "Duparquet", "state": "", "country": "CA", "coord": {"lon": -79.232941, "lat": 48.500179}}, {"id": 5944335, "name": "Dupuy", "state": "", "country": "CA", "coord": {"lon": -79.358253, "lat": 48.83049}}, {"id": 5944368, "name": "Durham", "state": "", "country": "CA", "coord": {"lon": -80.816422, "lat": 44.16679}}, {"id": 5944371, "name": "Durham Bridge", "state": "", "country": "CA", "coord": {"lon": -66.598869, "lat": 46.11681}}, {"id": 5944610, "name": "Dyment", "state": "", "country": "CA", "coord": {"lon": -92.314987, "lat": 49.615639}}, {"id": 5944680, "name": "Eagle Bluff", "state": "", "country": "CA", "coord": {"lon": -119.505188, "lat": 49.26366}}, {"id": 5944684, "name": "Eagle Butte", "state": "", "country": "CA", "coord": {"lon": -110.434898, "lat": 49.600052}}, {"id": 5944872, "name": "Eagle River", "state": "", "country": "CA", "coord": {"lon": -93.194748, "lat": 49.791931}}, {"id": 5944893, "name": "Eaglesham", "state": "", "country": "CA", "coord": {"lon": -117.885986, "lat": 55.78336}}, {"id": 5944935, "name": "Ear Falls", "state": "", "country": "CA", "coord": {"lon": -93.23526, "lat": 50.639549}}, {"id": 5944975, "name": "Earlton", "state": "", "country": "CA", "coord": {"lon": -79.816391, "lat": 47.716862}}, {"id": 5945003, "name": "East Advocate", "state": "", "country": "CA", "coord": {"lon": -64.765472, "lat": 45.333431}}, {"id": 5945016, "name": "East Angus", "state": "", "country": "CA", "coord": {"lon": -71.665771, "lat": 45.483379}}, {"id": 5945137, "name": "East Braintree", "state": "", "country": "CA", "coord": {"lon": -95.623817, "lat": 49.619389}}, {"id": 5945299, "name": "East Chezzetcook", "state": "", "country": "CA", "coord": {"lon": -63.231972, "lat": 44.71685}}, {"id": 5945311, "name": "East Coulee", "state": "", "country": "CA", "coord": {"lon": -112.485153, "lat": 51.33342}}, {"id": 5945364, "name": "Eastend", "state": "", "country": "CA", "coord": {"lon": -108.81813, "lat": 49.516739}}, {"id": 5945566, "name": "Eastern Passage", "state": "", "country": "CA", "coord": {"lon": -63.481991, "lat": 44.616852}}, {"id": 5945707, "name": "East Gwillimbury", "state": "", "country": "CA", "coord": {"lon": -79.416313, "lat": 44.133411}}, {"id": 5945789, "name": "East LaHave", "state": "", "country": "CA", "coord": {"lon": -64.365448, "lat": 44.316849}}, {"id": 5945848, "name": "Eastmain", "state": "", "country": "CA", "coord": {"lon": -78.166161, "lat": 52.183498}}, {"id": 5945851, "name": "Eastman", "state": "", "country": "CA", "coord": {"lon": -72.315804, "lat": 45.300079}}, {"id": 5945998, "name": "East Poplar", "state": "", "country": "CA", "coord": {"lon": -105.384392, "lat": 49.06675}}, {"id": 5946001, "name": "Eastport", "state": "", "country": "CA", "coord": {"lon": -53.748089, "lat": 48.649899}}, {"id": 5946074, "name": "East Royalty", "state": "", "country": "CA", "coord": {"lon": -63.10228, "lat": 46.27792}}, {"id": 5946222, "name": "East Wiltshire", "state": "", "country": "CA", "coord": {"lon": -63.213989, "lat": 46.254318}}, {"id": 5946226, "name": "East Windsor", "state": "", "country": "CA", "coord": {"lon": -82.983139, "lat": 42.31678}}, {"id": 5946385, "name": "Echo Bay", "state": "", "country": "CA", "coord": {"lon": -84.066628, "lat": 46.48336}}, {"id": 5946502, "name": "Economy", "state": "", "country": "CA", "coord": {"lon": -63.915428, "lat": 45.38345}}, {"id": 5946523, "name": "Edam", "state": "", "country": "CA", "coord": {"lon": -108.768112, "lat": 53.183472}}, {"id": 5946577, "name": "Eden", "state": "", "country": "CA", "coord": {"lon": -99.470207, "lat": 50.376419}}, {"id": 5946620, "name": "Edgar", "state": "", "country": "CA", "coord": {"lon": -79.616333, "lat": 44.516811}}, {"id": 5946660, "name": "Edgerton", "state": "", "country": "CA", "coord": {"lon": -110.451599, "lat": 52.750141}}, {"id": 5946666, "name": "Edgewood", "state": "", "country": "CA", "coord": {"lon": -118.152283, "lat": 49.783161}}, {"id": 5946768, "name": "Edmonton", "state": "", "country": "CA", "coord": {"lon": -113.468712, "lat": 53.55014}}, {"id": 5946820, "name": "Edson", "state": "", "country": "CA", "coord": {"lon": -116.435593, "lat": 53.58345}}, {"id": 5946824, "name": "Edwand", "state": "", "country": "CA", "coord": {"lon": -112.28521, "lat": 54.150169}}, {"id": 5946917, "name": "Edwardsville", "state": "", "country": "CA", "coord": {"lon": -60.23175, "lat": 46.16684}}, {"id": 5947035, "name": "Eganville", "state": "", "country": "CA", "coord": {"lon": -77.099449, "lat": 45.533409}}, {"id": 5947123, "name": "Egremont", "state": "", "country": "CA", "coord": {"lon": -113.1353, "lat": 54.033459}}, {"id": 5947325, "name": "Elbow", "state": "", "country": "CA", "coord": {"lon": -106.584549, "lat": 51.11676}}, {"id": 5947456, "name": "Eldon", "state": "", "country": "CA", "coord": {"lon": -116.035461, "lat": 51.3167}}, {"id": 5947462, "name": "Eldorado", "state": "", "country": "CA", "coord": {"lon": -108.50161, "lat": 59.550461}}, {"id": 5947580, "name": "Elgin", "state": "", "country": "CA", "coord": {"lon": -65.115501, "lat": 45.800159}}, {"id": 5947585, "name": "Elgin", "state": "", "country": "CA", "coord": {"lon": -76.21608, "lat": 44.600121}}, {"id": 5947588, "name": "Elgin", "state": "", "country": "CA", "coord": {"lon": -100.270088, "lat": 49.443909}}, {"id": 5947696, "name": "Elk Bay", "state": "", "country": "CA", "coord": {"lon": -125.436218, "lat": 50.28294}}, {"id": 5947708, "name": "Elkford", "state": "", "country": "CA", "coord": {"lon": -114.885399, "lat": 50.050072}}, {"id": 5947712, "name": "Elkhorn", "state": "", "country": "CA", "coord": {"lon": -101.240341, "lat": 49.975601}}, {"id": 5947748, "name": "Elko", "state": "", "country": "CA", "coord": {"lon": -115.118721, "lat": 49.299938}}, {"id": 5947754, "name": "Elk Point", "state": "", "country": "CA", "coord": {"lon": -110.901703, "lat": 53.900169}}, {"id": 5947866, "name": "Elliot Lake", "state": "", "country": "CA", "coord": {"lon": -82.633148, "lat": 46.383362}}, {"id": 5947965, "name": "Elliston", "state": "", "country": "CA", "coord": {"lon": -53.048038, "lat": 48.633179}}, {"id": 5947979, "name": "Ellscott", "state": "", "country": "CA", "coord": {"lon": -112.902023, "lat": 54.500179}}, {"id": 5947998, "name": "Elma", "state": "", "country": "CA", "coord": {"lon": -95.908638, "lat": 49.874989}}, {"id": 5948012, "name": "Elm Creek", "state": "", "country": "CA", "coord": {"lon": -97.993233, "lat": 49.67561}}, {"id": 5948045, "name": "Elmira", "state": "", "country": "CA", "coord": {"lon": -80.549698, "lat": 43.60009}}, {"id": 5948075, "name": "Elmsdale", "state": "", "country": "CA", "coord": {"lon": -63.498692, "lat": 44.96685}}, {"id": 5948094, "name": "Elmvale", "state": "", "country": "CA", "coord": {"lon": -79.866364, "lat": 44.583401}}, {"id": 5948108, "name": "Eloida", "state": "", "country": "CA", "coord": {"lon": -75.966072, "lat": 44.683411}}, {"id": 5948111, "name": "Elora", "state": "", "country": "CA", "coord": {"lon": -80.432991, "lat": 43.683399}}, {"id": 5948117, "name": "Elphinstone", "state": "", "country": "CA", "coord": {"lon": -100.322739, "lat": 50.531109}}, {"id": 5948124, "name": "Elrose", "state": "", "country": "CA", "coord": {"lon": -108.034668, "lat": 51.2001}}, {"id": 5948507, "name": "Emerald", "state": "", "country": "CA", "coord": {"lon": -61.031799, "lat": 46.316841}}, {"id": 5948508, "name": "Emerald", "state": "", "country": "CA", "coord": {"lon": -76.766121, "lat": 44.15012}}, {"id": 5948716, "name": "Empress", "state": "", "country": "CA", "coord": {"lon": -110.001617, "lat": 50.95013}}, {"id": 5948729, "name": "Emsdale", "state": "", "country": "CA", "coord": {"lon": -79.316353, "lat": 45.533401}}, {"id": 5948749, "name": "Enchant", "state": "", "country": "CA", "coord": {"lon": -112.418518, "lat": 50.166771}}, {"id": 5948770, "name": "Enderby", "state": "", "country": "CA", "coord": {"lon": -119.152344, "lat": 50.549801}}, {"id": 5948819, "name": "Engineer", "state": "", "country": "CA", "coord": {"lon": -134.253616, "lat": 59.482731}}, {"id": 5948844, "name": "Englehart", "state": "", "country": "CA", "coord": {"lon": -79.866402, "lat": 47.81686}}, {"id": 5948888, "name": "English Harbour East", "state": "", "country": "CA", "coord": {"lon": -54.898239, "lat": 47.633221}}, {"id": 5948965, "name": "Ennadai", "state": "", "country": "CA", "coord": {"lon": -100.884193, "lat": 61.133789}}, {"id": 5948972, "name": "Enniskerry", "state": "", "country": "CA", "coord": {"lon": -75.568237, "lat": 45.202301}}, {"id": 5949028, "name": "Enterprise", "state": "", "country": "CA", "coord": {"lon": -76.866127, "lat": 44.46682}}, {"id": 5949030, "name": "Enterprise", "state": "", "country": "CA", "coord": {"lon": -116.13604, "lat": 60.550228}}, {"id": 5949245, "name": "Eriksdale", "state": "", "country": "CA", "coord": {"lon": -98.101822, "lat": 50.86282}}, {"id": 5949247, "name": "Erin", "state": "", "country": "CA", "coord": {"lon": -80.064362, "lat": 43.7729}}, {"id": 5949251, "name": "Erindale", "state": "", "country": "CA", "coord": {"lon": -79.64962, "lat": 43.533409}}, {"id": 5949307, "name": "Ernfold", "state": "", "country": "CA", "coord": {"lon": -106.88456, "lat": 50.46677}}, {"id": 5949493, "name": "Espanola", "state": "", "country": "CA", "coord": {"lon": -81.766487, "lat": 46.258369}}, {"id": 5949512, "name": "Esquimalt", "state": "", "country": "CA", "coord": {"lon": -123.419296, "lat": 48.449631}}, {"id": 5949531, "name": "Essex", "state": "", "country": "CA", "coord": {"lon": -82.824829, "lat": 42.175091}}, {"id": 5949555, "name": "Estaire", "state": "", "country": "CA", "coord": {"lon": -80.799721, "lat": 46.300079}}, {"id": 5949563, "name": "Esterhazy", "state": "", "country": "CA", "coord": {"lon": -102.084259, "lat": 50.650009}}, {"id": 5949568, "name": "Estevan", "state": "", "country": "CA", "coord": {"lon": -102.984222, "lat": 49.133369}}, {"id": 5949585, "name": "Esther", "state": "", "country": "CA", "coord": {"lon": -110.268311, "lat": 51.700119}}, {"id": 5949601, "name": "Eston", "state": "", "country": "CA", "coord": {"lon": -108.751442, "lat": 51.150101}}, {"id": 5949621, "name": "Estrie", "state": "", "country": "CA", "coord": {"lon": -71.665771, "lat": 45.483379}}, {"id": 5950218, "name": "Ethelbert", "state": "", "country": "CA", "coord": {"lon": -100.394173, "lat": 51.529209}}, {"id": 5950267, "name": "Etobicoke", "state": "", "country": "CA", "coord": {"lon": -79.567108, "lat": 43.654209}}, {"id": 5950322, "name": "Etzikom", "state": "", "country": "CA", "coord": {"lon": -111.104652, "lat": 49.47995}}, {"id": 5950344, "name": "Eugenia", "state": "", "country": "CA", "coord": {"lon": -80.516403, "lat": 44.316799}}, {"id": 5950504, "name": "Evanston", "state": "", "country": "CA", "coord": {"lon": -61.215229, "lat": 45.61684}}, {"id": 5950506, "name": "Evansville", "state": "", "country": "CA", "coord": {"lon": -82.566551, "lat": 45.816769}}, {"id": 5950572, "name": "Everard", "state": "", "country": "CA", "coord": {"lon": -88.350037, "lat": 48.900101}}, {"id": 5950589, "name": "Evergreen", "state": "", "country": "CA", "coord": {"lon": -114.535316, "lat": 52.23341}}, {"id": 5950609, "name": "Evesham", "state": "", "country": "CA", "coord": {"lon": -109.845932, "lat": 52.391239}}, {"id": 5950674, "name": "Exeter", "state": "", "country": "CA", "coord": {"lon": -81.479332, "lat": 43.343529}}, {"id": 5950739, "name": "Extension", "state": "", "country": "CA", "coord": {"lon": -123.952713, "lat": 49.09964}}, {"id": 5950760, "name": "Eyebrow", "state": "", "country": "CA", "coord": {"lon": -106.151207, "lat": 50.80006}}, {"id": 5950812, "name": "Fabre", "state": "", "country": "CA", "coord": {"lon": -79.366364, "lat": 47.200142}}, {"id": 5950954, "name": "Fairford Reserve", "state": "", "country": "CA", "coord": {"lon": -98.69294, "lat": 51.598621}}, {"id": 5951036, "name": "Fairview", "state": "", "country": "CA", "coord": {"lon": -118.386063, "lat": 56.06675}}, {"id": 5951224, "name": "Falher", "state": "", "country": "CA", "coord": {"lon": -117.202621, "lat": 55.733391}}, {"id": 5951644, "name": "Farnham", "state": "", "country": "CA", "coord": {"lon": -72.982437, "lat": 45.283379}}, {"id": 5951659, "name": "Faro", "state": "", "country": "CA", "coord": {"lon": -133.337204, "lat": 62.232868}}, {"id": 5951840, "name": "Fauquier", "state": "", "country": "CA", "coord": {"lon": -82.033073, "lat": 49.316921}}, {"id": 5951878, "name": "Fawcett", "state": "", "country": "CA", "coord": {"lon": -114.085419, "lat": 54.533451}}, {"id": 5952121, "name": "Fenelon Falls", "state": "", "country": "CA", "coord": {"lon": -78.749573, "lat": 44.533421}}, {"id": 5952131, "name": "Fenn", "state": "", "country": "CA", "coord": {"lon": -112.751892, "lat": 52.13343}}, {"id": 5952191, "name": "Fergus", "state": "", "country": "CA", "coord": {"lon": -80.366379, "lat": 43.7001}}, {"id": 5952315, "name": "Ferintosh", "state": "", "country": "CA", "coord": {"lon": -112.968658, "lat": 52.76683}}, {"id": 5952330, "name": "Ferme-Neuve", "state": "", "country": "CA", "coord": {"lon": -75.449287, "lat": 46.700111}}, {"id": 5952334, "name": "Fermeuse", "state": "", "country": "CA", "coord": {"lon": -52.956371, "lat": 46.976292}}, {"id": 5952337, "name": "Fermont", "state": "", "country": "CA", "coord": {"lon": -67.082039, "lat": 52.783451}}, {"id": 5952349, "name": "Fern Creek", "state": "", "country": "CA", "coord": {"lon": -114.25206, "lat": 53.100128}}, {"id": 5952370, "name": "Fernie", "state": "", "country": "CA", "coord": {"lon": -115.06871, "lat": 49.499962}}, {"id": 5952554, "name": "Field", "state": "", "country": "CA", "coord": {"lon": -80.01638, "lat": 46.516788}}, {"id": 5952555, "name": "Field", "state": "", "country": "CA", "coord": {"lon": -116.485512, "lat": 51.399971}},